iba_label,iba_name,longitude,latitude,area_ha
AL001,Lake Shkodra (Lake Scadar),19.3333,42.1667,14000
AL003,Lake Megali Prespa,20.95,40.8833,10000
AL005,Narta Lagoon,19.3833,40.5833,4180
AL006,Karavasta Lagoon,19.4167,40.8833,5450
AL007,Drini Delta,19.6167,41.7833,2188
AL012,Lake Butrinti,20,39.8333,1900
AL014,Patoku lagoon,19.6,41.6333,1211
AL015,Lalzi Bay,19.5,41.3,800
AT001,Austrian part of Hanság,16.9666,47.7333,3729
AT002,Parndorfer Platte and Heideboden,16.9666,47.95,26839
AT003,Southern Seewinkel and Zitzmannsdorfer,16.8333,47.75,13995
AT004,Neusiedler See,16.7666,47.8166,25187
AT006,North-eastern Leithagebirge,16.7,47.9666,6320
AT007,Surroundings of Mattersburg,16.4166,47.7333,4064
AT008,Zoological Gardens of Lainz,16.2166,48.1666,2669
AT009,Lobau,16.5166,48.1666,2585
AT010,March/Thaya riverine forest,16.8333,48.4333,15457
AT012,Feuchte Ebene and Rauchwarther Platte,16.5,48.0166,8156
AT013,Steinfeld,16.2333,47.8333,13300
AT014,Thermenlinie,16.1666,47.9666,15106
AT015,Vienna forest,16.2666,48.2,83563
AT016,Western Weinviertel,15.9666,48.65,31613
AT017,Central Marchfeld,16.7166,48.25,44138
AT018,Riverine forests in the Tullnerfeld,15.9666,48.35,18352
AT019,Lösslandschaft and Wagram east of Krems,15.6,48.4333,14158
AT020,Pielachtal,15.4333,48.2166,1907
AT024,Middle Kamp valley,15.5666,48.6333,22412
AT027,Western Waldviertel,14.9666,48.6333,41198
AT028,Niederösterreichische Randalpen,15.5666,48.0166,20232
AT029,Ötscher-Dürrenstein,15.1166,47.8333,41260
AT031,Freiwald,14.7333,48.6166,53654
AT032,Bohemian forest and Mühl valley,13.9833,48.6833,22302
AT033,Northern Kalkalpen,14.1333,48.2,131535
AT034,Lower course of the Traun,13.9666,48.05,3010
AT035,Ibmer Moor,12.95,48.05,1090
AT036,Salzach valley,12.8333,48.0333,3781
AT037,Storage lakes on the lower Inn,13.2,48.3,1699
AT038,Meadows and lakes in the foreland of th,13.1666,47.95,1390
AT039,Hohe Tauern National Park,12.7833,47.05,183600
AT041,Styrian Joglland,15.9166,47.4,52607
AT042,Unterlammer hill country,16.05,46.9833,6500
AT043,South-east Styrian hill country,15.9167,46.8,10500
AT044,Lower Mur valley,15.8167,46.7333,13600
AT046,Niedere Tauern,14.3,47.3166,253560
AT047,Villacher Alpe-Dobratsch,13.7166,46.6666,8776
AT050,Kaisergebirge,12.2666,47.6,18639
AT051,Tyrolian Lech valley,10.5333,47.4666,4138
AT054,Meadows on the lower Ill,9.55,47.2833,266
AT055,Delta of the Rhine,9.66666,47.4333,3652
AZ033,Yashma Island,49.5333,40.7333,250
AZ039,Sangachal Bay,49.5,40.15,4000
AZ048,Gizilagach State Reserve,49.05,39.0833,132500
BA001,Hutovo blato,17.7667,43.05,6144
BA003,Bardaca,17.45,45.1167,700
BE001,Trappegeer-Stroombank,2.75,51.2,17000
BE002,Westkust,2.6667,51.1333,1415
BE003,IJzervallei-De Blankaart,2.8333,51,5100
BE004,Voorhaven Zeebrugge and Baai van Heist,3.1833,51.35,230
BE005,Polderkomplex,3.2167,51.25,9349
BE006,Zwin,3.35,51.3333,1820
BE007,Krekengebied,3.6667,51.25,780
BE008,Bourgoyen-Ossemeersen,3.6833,51.0667,213
BE009,Gentse Kanaalzone,3.7333,51.0833,700
BE010,Durme en Middenloop van de Schelde,4.1,51.05,7923
BE011,Schorren en Polder van de Beneden-Schel,4.25,51.3167,7570
BE012,Kuifeend and Blokkersdijk,4.35,51.2667,194
BE013,Kalmthoutse Heide,4.4333,51.4,2200
BE014,De Maatjes,4.5667,51.3833,4100
BE015,Mechels Rivierengebied,4.5167,51.0167,2263
BE016,De Dijlevallei,4.6,50.7833,1250
BE017,Zegge,4.9333,51.1833,91
BE018,Gebieden ten noorden van Turnhout en Ra,5,51.3833,7075
BE019,Ronde Put,5.1833,51.2833,5400
BE020,Demervallei,5.1833,51.0167,7010
BE021,Vallei van de Zwarte Beek,5.3333,51.1167,8864
BE022,Gebieden gelegen te Peer en Hechtel-Eks,5.4167,51.1167,10015
BE023,Hamonterheide,5.5833,51.1667,13125
BE024,Grensmaas,5.8333,51.15,2653
BE025,Gebieden gelegen te Houthalen-Helchtere,5.4333,51.05,2798
BE026,Vijverkomplex van Midden Limburg,5.3,50.9667,2560
BE027,Bokrijk,5.4,50.95,800
BE028,De Maten,5.45,50.95,600
BE029,Mechelse Heide en de Vallei van de Ziep,5.6333,50.95,2350
BE030,Bassin de la Haine,3.7333,50.4833,13715
BE031,Vallée de la Dyle,4.6,50.7167,1334
BE032,Entre-Sambre-et-Meuse,4.4667,50.0833,83866
BE033,Haute Meuse,4.9167,50.25,7700
BE034,Croix-Scaille,4.9667,49.9333,36610
BE035,Daverdisse,5.1,50.0333,14914
BE036,Lesse et Lomme,5.1667,50.1167,22426
BE037,Marche en Famenne,5.4167,50.3,5100
BE038,Saint-Hubert,5.4,50.0833,16700
BE039,Ochamp-Freux,5.3833,49.95,10900
BE040,Malchamps,5.65,50.4,41638
BE041,Vallée de la Lienne,5.7833,50.3333,8500
BE043,Wanne-Logbiermé,5.95,50.3167,5700
BE044,Hautes Fagnes/Eifel,6.25,50.4,80304
BE045,Deux Ourthes,5.7667,50.0833,34678
BE046,Haute Sûre/Ardenne méridionale,5.4667,49.7333,89443
BG001,Rayanovtsi,23.0611,42.9341,13180
BG002,Western Balkan,22.8266,43.4666,146820
BG004,Dolni Bogrov-Kazichene,23.4963,42.6783,2251
BG011,Central Balkan,24.9672,42.7172,166678
BG013,Studen Kladenets,25.5319,41.625,15996
BG015,Konush Reservoir,25.0355,42.0797,38
BG016,Plovdiv Fish-ponds,24.7583,42.1869,146
BG018,Vardim Island,25.4788,43.6313,1168
BG020,Radinchevo,26.0794,41.9108,5786
BG021,Sakar,26.328,42.0105,125707
BG023,Ovtcharitsa Reservoir,26.1855,42.2647,4304
BG029,Kotlenska Mountain,26.4236,42.865,99264
BG030,Kalimok Complex,26.4283,44.0252,9432
BG031,Stenata,26.5641,44.0255,80
BG032,Pozharevo Island,26.6977,44.0638,976
BG033,Srebarna,27.0736,44.1161,1448
BG034,Mandra-Poda complex,27.3825,42.4166,5988
BG035,Burgasko Lake,27.3883,42.4994,3092
BG038,Provadiysko-Royaksko plateau,27.2744,43.1719,84030
BG039,Harsovska Reka,27.3786,43.9091,35429
BG040,Strandzha,27.6477,42.0725,115417
BG043,Emine,27.7316,42.7444,68811
BG047,Varna-Beloslav Lakes Complex,27.8058,43.1925,4682
BG055,Rila,23.5216,42.1077,143733
BG057,Besaparski Hills,24.3863,42.12,14765
BG060,Galata,27.8925,43.118,8137
BG062,Ludogorie,26.7608,43.8033,91389
BG067,Golia Island,22.9883,44.0161,415
BG069,Zvanichevo Fish-ponds,24.2769,42.2005,1571
BG073,Dobrostan,25.0286,41.7594,83616
BG074,Nikopolsko Plateau,24.948,43.6386,22260
BG077,Bakarlaka,27.6188,42.4577,33505
BG080,Vitosha Mountain,23.2686,42.5583,27111
BG081,Maritsa-Parvomay,25.2216,42.1286,11505
BG082,Batova,27.9591,43.353,38133
BG084,Palakaria,23.4027,42.3683,15809
BG086,Tsalapitsa Rice-fields,24.5577,42.2136,3672
BG088,Mikre Meadows,24.5911,43.0177,12387
BG094,Adata-Tundzha,26.4172,42.5663,5636
BG095,Gorni Dabnik-Telish Reservoir,24.308,43.3627,3398
BG096,Obnova Fish-ponds,24.9791,43.4605,5422
BG098,Rupite,23.2772,41.4752,8837
BG099,Kocherinovo Meadows,23.0836,42.0916,2435
BG103,Zlato Pole,25.7213,42.0291,409
BG107,Boboshevo Meadows,22.9911,42.1258,4835
BG109,Vasilyovska Mountain,24.3161,42.9808,45472
BG114,Chelopechene Fish-ponds,23.4569,42.7408,65
BY001,Osveya,28.0167,56.1,22600
BY002,Elnya raised bog,27.9167,55.5667,23200
BY003,Kozyany,29.3667,55.4167,26060
BY004,Golubickaya Pushcha,28.05,55,20452
BY009,Belovezhskaya Pushcha,24.0667,52.75,87400
BY011,Selets,24.9167,52.9666,19500
BY012,Vygonoshchanskoe,26,52.6667,43000
BY016,Zvanets,24.8333,52.0833,15873
BY017,Mid-Pripyat,27,52.25,90447
BY018,Olmany,27.25,51.8333,94219
BY019,Beloe fish-farm,27.7333,52.2833,5700
BY021,Flood-plain of Sozh river,31.1333,52.6666,13400
BY022,Sporovski,25.3333,52.3833,19384
BY023,Belooziorsk-Khovanschina,25.2833,54.5666,26500
BY030,Floodplain of Lva river,27.3,51.9833,56000
BY031,Floodplain of Ptich River,20.8166,52.8333,4136
BY036,Pripyatski,28,52,82461
BY038,Servech,27.5,55,9268
BY041,Tikiny ostrova,27.45,55.6,26500
BY042,Vasilevichi,29.8166,52.15,187000
BY045,Yanka River Floodplain,27.0333,55.3166,20170
CH001,Mont Tendre,6.2667,46.55,31000
CH002,La Brévine and Les Ponts-de-Martel,6.7333,46.9667,23200
CH003,Jura mountains of Baselland/Solothurn,7.65,47.4333,35000
CH004,Grosses Moos' plain and Niederried rese,7.1833,46.9667,16100
CH005,Lowlands of Zurich and lower valley of,8.5667,47.5333,22700
CH006,River Rhone: Geneva to Verbois reservoi,6.1,46.1833,1100
CH007,Lake Geneva: Versoix and Hermance to Ge,6.2,46.25,3400
CH008,Lake Geneva: Rolle to Céligny,6.2833,46.3833,1500
CH009,Lake Geneva: Grangettes,6.9,46.3667,6600
CH010,Lake Neuchâtel: Corcelettes-Vaumarcus,6.7333,46.8167,690
CH011,Lake Neuchâtel: southern shore,6.9167,46.8667,6800
CH012,Klingnau reservoir,8.2167,47.55,410
CH013,End of Lake Constance and river Rhine u,8.8167,47.6333,480
CH014,Lake Constance: Bay of Ermatingen,9.0667,47.65,530
CH015,Lake Constance: Bay of Constance,9.25,47.6333,230
CH016,Pre-alpine region of Pays d'Enhaut,7.1667,46.4667,37100
CH017,Pre-alpine region of Gurnigel,7.4167,46.7333,16800
CH018,Augstmatthorn,7.9667,46.75,17200
CH019,Pre-alpine region of Schwyz,8.8167,47.0167,35600
CH020,Upper Toggenburg and Säntis,9.3,47.1833,38600
CH021,Central Valais between Sierre and Visp,7.8167,46.3333,27800
CH024,Heinzenberg mountain and surrounding va,9.3167,46.7333,29000
CH028,Maggia valley,8.7333,46.25,14700
CH029,Bolle di Magadino,8.9,46.1333,1400
CH030,Generoso mountain,9.0333,45.9,6100
CY001,Klidhes Islands,34.6,35.7,15
CY005,Larnaca salt-lakes,33.6167,34.8667,1850
CY007,Akrotiri salt-lake including Bishop's P,32.9667,34.6167,4000
CZ001,Krkonose mountains (Giant mountains),15.6333,50.7,54800
CZ002,Zehunský rybník pond,15.3167,50.1667,1964
CZ003,Krivoklatsko (Krivoklatsko region),13.8666,50,62524
CZ004,Doupov hills,13.1166,50.25,63117
CZ005,Sumava mountains (Bohemian forest),13.6667,48.9333,168338
CZ006,Rezabinec pond,14.0833,49.25,111
CZ007,Dehtár pond,14.2833,49,341
CZ008,Trebonsko (Trebon region),14.7667,49,73251
CZ009,Nove Mlyny middle reservoir,16.6,48.9,1046
CZ010,Pálava,16.6667,48.8166,8539
CZ011,Lednicke rybniky ponds (Lednice fish-po,16.7166,48.7666,685
CZ012,Confluence of the Morava (March) and Dy,16.9666,48.7,9576
CZ013,Beskydy mountains,18.3667,49.4333,120386
CZ014,Poodri,18.0166,49.6666,8043
CZ015,Hermansky stav pond-Struzka wetlands,18.3166,49.8833,5041
CZ016,Jeseniky mountains,17.2167,50.1,74369
DE004,Flensburger Innen- and Aussenförde,9.6,54.8666,10200
DE005,Schlei,9.83333,54.5833,2665
DE006,Southern shore of Eckernförder Bucht,10.0666,54.45,5130
DE007,Stoller Grund,10.2,54.5166,2200
DE008,Coastline of Probstei,10.35,54.4166,9680
DE009,Selenter See,10.45,54.3,2141
DE010,Grosser Plöner See,10.4166,54.1333,3038
DE011,Warder See,10.4166,53.9666,1900
DE013,Grosser and Kleiner Binnensee,10.6333,54.3333,630
DE017,East- and south-east coast of Fehmarn,11.2833,54.4166,2700
DE018,Eastern bight of the Fehmarnsund,11.1333,54.3833,2930
DE021,Neustädter Bucht,10.75,54.0333,2050
DE022,Brodtener Ufer,10.8666,53.9833,800
DE023,Traveförde and Dassower See,10.9166,53.9166,1500
DE024,Lowlands of the Rivers Eider,9.33333,54.3833,60000
DE025,Pinneberg Elbe lowlands,9.4,53.8166,7600
DE026,Aukrug Nature Park,9.71666,54.1,41000
DE027,Lauenburgische Seen Nature Park and Sch,10.7833,53.65,47400
DE028,Kühren Teich and Lanker See,10.3,54.2166,470
DE031,Heidmoor lowlands,10.5,54.0333,338
DE032,Sachsenwald,10.3666,53.5333,7336
DE034,Hamburg Wadden Sea National Park,8.41666,53.9166,13750
DE035,Duvenstedter Brook,10.1666,53.7166,780
DE036,Mühlenberger Loch,9.8,53.5333,675
DE040,Pomeranian bay,14.0833,54.3,333425
DE043,Lakes of Schwerin,11.6166,53.7833,74800
DE044,Greifswalder Bodden,13.5166,54.2166,103155
DE045,Island of Usedom,14.0166,53.9333,27790
DE046,Usedom lagoon (Peenestrom,13.9166,53.9166,49920
DE047,Schaalsee,11,53.6666,25660
DE048,Lewitz,11.6333,53.4666,15780
DE049,Nossentiner-/Schwinzer Heide with Krako,12.2833,53.5333,45850
DE050,Eastern shore of Lake Müritz,12.9,53.35,46870
DE052,Southern Tollense basin,13.1666,53.45,8660
DE053,Peenetal (Peenetalmoor and Anklamer Sta,13.7833,53.85,30530
DE054,Putzarer See,13.75,53.65,31510
DE055,Ueckermünder Heide,14.1666,53.6333,31370
DE056,Woodlands of Western Pomerania,12.8166,54.2333,23760
DE058,Lower Saxony Wadden Sea National Park,8.16666,53.55,235071
DE059,Riddagshäuser Teiche,10.5833,52.2833,475
DE060,Drömling,10.9,52.4833,4285
DE061,Barnbruch,10.7,52.45,2567
DE062,Wendesser moor,10.2333,52.3666,160
DE063,Ems valley between Leer and Emden,7.33333,53.3166,2080
DE064,Terborg,7.4,53.3,1956
DE065,Lower reaches of River Weser,8.5,53.35,4163
DE067,Landgraben and Dumme lowlands,11.3,52.9,7006
DE068,Rheiderland,7.3,53.25,15521
DE069,Winsener Elbmarsch,10.2,53.3833,852
DE070,Lucie and Landwehr,11.2333,53.05,8023
DE071,Weser valley near Stolzenau and Landesb,9.08333,52.5333,1254
DE072,Upper Aller lowlands,10.2333,52.5833,767
DE073,Seeburger See,10.1666,51.5666,123
DE074,Viehmoor with Leiferder Teiche,10.4666,52.45,302
DE075,Heerter See,10.3833,52.1166,316
DE077,Aper Tief,7.71666,53.2,2103
DE079,Kleinringer and Großringer Wösten,6.91666,52.6333,1166
DE081,Groß Fullener Moor,7.13333,52.6666,6683
DE082,Leeg-,7.55,53,2090
DE084,Leda-Jümme lowlands,7.58333,53.2166,5526
DE087,Südradde lowlands,7.73333,52.7666,6384
DE088,Leine valley near Salzderhelden,9.95,51.75,1150
DE089,Valley of River Ems,7.28333,53.0333,8487
DE091,Engerhafer Meede,7.25,53.4833,2625
DE092,Alfsee,7.96666,52.4833,351
DE094,Norden-Esens,7.88333,53.6666,10485
DE095,Wittmund-Wangerland,7.88333,53.7,7882
DE096,Krummhörn-Westermarsch,7.06666,53.4833,13176
DE097,Lower Aller lowlands,9.56666,52.7666,6879
DE098,Ostenholzer Moor and Meissendorfer Teic,9.76666,52.7166,3454
DE099,Steinhuder Meer,9.33333,52.4666,7292
DE100,Diepholzer Moorniederung and Siedener M,8.75,52.55,14930
DE101,Dümmer,8.33333,52.5,4992
DE102,Hamme lowlands,8.9,53.25,7975
DE103,Hunte lowlands near Oldenburg,8.33333,53.1666,937
DE104,Ostfriesische Meere,7.3,53.4333,5877
DE105,Tinner Dose and Staverner Dose,7.38333,52.8,4806
DE106,Elbe lowlands between Schnackenburg and,10.75,53.3,53919
DE107,Elbe marshes between Stade and Otterndo,9.16666,53.85,19310
DE108,Fehntjer Tief,7.46666,53.3666,4556
DE111,Land Wursten,8.53333,53.7,7413
DE113,Lowlands of River Ems near Lathen,7.3,52.8666,2974
DE114,Lüneburger Heide,9.91666,53.15,23458
DE116,Blockland - lower Wümme valley - Westli,8.83333,53.1333,3496
DE118,Niedervieland,8.68333,53.1,2310
DE119,Mittelwesermarsch,8.86666,53.0333,483
DE120,Middle Elbe valley with Steckby-Lödderi,12.2666,51.8,18272
DE121,Zerbster Land,12.05,52,6207
DE122,Helme reservoir Berga-Kelbra,11,51.4333,1454
DE123,Hakel,11.3333,51.8833,6441
DE124,Aland-Elbe lowlands,11.7,52.9833,4234
DE125,Drömling,11.1166,52.4666,4285
DE126,Landgraben-Dumme lowlands,10.9833,52.8666,2577
DE127,Milde lowlands/Altmark,11.5,52.6833,2207
DE128,Elbe lowlands Jerichow,11.9833,52.5,4371
DE129,Saale-Elster valley,12.0166,51.3833,5819
DE130,Wulfener Bruch and Teichgebiet Osternie,11.9666,51.8333,2171
DE131,Ploetzkau flood-plain forest,11.7,51.75,385
DE132,Fiener Bruch,12.2166,52.3166,8489
DE133,Salziger See and Salza valley,11.7333,51.4833,650
DE134,North-eastern lower Harz mountains,11.0666,51.7,16988
DE135,Hudewälder northeast of Haldensleben,11.5333,52.3333,4371
DE136,Spreewald,13.8833,51.95,47344
DE137,Lowlands of middle Havel,12.6666,52.4666,41874
DE138,Oberes Rhinluch / Havelländisches Luch,12.8833,52.75,58614
DE139,Döberitzer Heide,13.0333,52.5,3926
DE141,Peitzer und Bärenbrücker Teiche,14.4166,51.85,1572
DE142,Lower Oder valley,14.15,52.9833,11779
DE143,Schorfheide-Chorin,13.8666,53,62769
DE144,Deichvorland Oderbruch,14.45,52.6666,3158
DE145,Unteres Rhinluch-Dreetzer See / Havellä,12.55,52.75,15805
DE146,Uckermark lake region,13.5333,53.2166,54518
DE147,Stechlin,13,53.1166,7928
DE148,Märkische Schweiz,14.0833,52.55,17863
DE149,Lower Elbe valley,11.65,53.0166,53110
DE150,Military training area east and west of,13.1666,52.0333,18147
DE151,Lower Havel - Lake Schollene - Lake Gül,12.2666,52.75,16775
DE152,Banks of the Müggelspree,13.6833,52.4333,16
DE154,Schwalm-Nette-Platte and Grenzwald,6.21666,51.2166,10736
DE155,Bogs and heathlands of the Westmünsterl,6.9,52.1666,5170
DE156,Hellwegbörde,8.31666,51.6,57675
DE157,Weserstaustufe Schlüsselburg,9.03333,52.45,3320
DE158,Bastau lowlands,8.76666,52.3166,3587
DE159,Wahner Heide,7.16666,50.8666,4502
DE160,Lower Rhine,6.4,51.7666,48295
DE161,Heubachniederung/ Schwarzes Venn/ Borke,7.13333,51.8,7349
DE162,Rieselfelder Münster,7.65,52.0333,584
DE163,Recker Moor/ Düsterdieker Niederung/ Se,7.86666,52.3666,3591
DE165,Emsaue (Rietberger Emsniederung - Stein,8.5,51.8,1617
DE166,Oppenweher Moor,8.5,52.5,487
DE167,Medebacher Bucht,8.66666,51.1833,21633
DE168,Sennelager training area,8.76666,51.8666,11591
DE169,Möhnesee,8.13333,51.4833,1625
DE170,Kellerwald,9,51.05,31000
DE171,Burgwald,8.83333,51,23000
DE174,Knüll,9.41666,50.9,35000
DE175,High Westerwald around Driedorf,8.16666,50.5833,8500
DE177,Lahn valley from Marburg to Wetzlar,8.71666,50.7,6200
DE180,Alluvion of the Lower Schwalm near Bork,9.33333,51.0666,4000
DE181,Hessian Rhine alluvion,8.38333,49.9,10500
DE182,Gladenbach mountains east of Herborn,8.33333,50.6666,9000
DE183,Rheingau,8,50,4700
DE184,Dune and aeolian sand area Dudenhofen,8.91666,50,5000
DE185,Lorsch forest and Vierheim heathland,8.51666,49.6,7000
DE190,Rhäden near Obersuhl and Bosserode,10.0166,50.95,130
DE193,Twiste reservior,9.05,51.35,24
DE194,Rhön Biosphere Reserve,10.0833,50.5,129764
DE195,Herbsleben ponds,10.8666,51.1333,85
DE196,Plothen ponds,11.75,50.6666,2350
DE197,Uhlstädt heathlands,11.25,50.5833,1082
DE200,Meura heathlands,11.1833,50.6,375
DE201,Schwarza valley,11.2166,50.6666,1967
DE202,Vesser valley Biosphere Reserve,10.85,50.5666,17000
DE203,Pressel wooded heath and mire,12.7666,51.5833,10034
DE204,Ponds and Elbe valley near Torgau,13.0166,51.6,14357
DE205,Oberlausitz heathland and fishponds bio,14.5333,51.3166,35000
DE206,Eschefeld ponds,12.5333,51.05,272
DE207,Westerzgebirge around Carlsfeld,12.5833,50.4333,5067
DE209,Grosshartmannsdorfer Grossteich,13.3333,50.8166,153
DE211,Sächsische Schweiz National Park,14.3,50.9166,9298
DE212,Eastern Erzgebirge around Fürstenau,13.8333,50.7666,3477
DE215,Hördter Rheinaue,8.31666,49.05,2000
DE216,Bliesgau,7.16666,49.2,24150
DE217,Wagbach lowlands,8.5,49.2666,1040
DE218,Rhine flats Altlußheim-Mannheim,8.5,49.3833,4504
DE220,Rhine flats Kehl-Helmlingen,7.88333,48.6666,2159
DE222,Rhine flats Nonnenweier - Kehl,7.76666,48.45,3938
DE223,Rhine flats Sasbach - Wittenweier,7.68333,48.25,4811
DE224,Rhine flats Neuenburg - Breisach,7.58333,47.9166,2877
DE225,Rhine flats Haltingen - Neuenburg and f,7.51666,47.7166,1746
DE226,Danube valley Untermarchtal-Ulm,9.8,48.2833,3980
DE227,Konstanzer Bucht of Lake Constance,9.2,47.65,583
DE228,Federseeried,9.61666,48.0833,3273
DE231,Untersee of Lake Constance,9.03333,47.7,6053
DE232,Silzenwiesen and Bruch near Stettfeld,8.61666,49.1666,286
DE233,Philippsburger Altrhein and Rheinschanz,8.45,49.2666,1065
DE238,Kocher and adjoining valleys,9.46666,49.2833,1346
DE239,South-eastern Alb and Upper Danube vall,9,48.1666,104772
DE241,Northern Karlsruhe Hardt,8.43333,49.1,4849
DE242,Lake Überlingen of Lake Constance,9.11666,47.7666,6588
DE243,Jagst and adjoining valleys,9.66666,49.4,2391
DE244,Rhine flats Karlsruhe - Rheinsheim,8.38333,49.1833,5389
DE245,Orchards and vineyards between Waldhaus,9.56666,48.8166,1836
DE246,Wutach ravine,8.41666,47.8666,6869
DE247,Kaiserstuhl,7.66666,48.1,9017
DE248,Stromberg,9,49,11878
DE250,Orchards and oakwoods near Filderstadt,9.21666,48.65,1974
DE251,Enz valley Mühlhausen - Roßwag,8.9,48.95,394
DE252,Schönbuch with Spitzberg,9.05,48.5666,19216
DE253,Orchards,8.86666,48.75,3835
DE254,Vogelfreistätte Mittlere Isar-Stauseen,12,48.4,590
DE255,Rötelsee-Weihergebiet incl. Regenaue an,12.5833,49.2,3059
DE256,Isar valley: Gottfrieding - Plattling i,12.75,48.7333,12754
DE257,Ismaninger Speichersee and fish ponds,11.7333,48.2166,986
DE261,Altmühl valley between Treuchtlingen an,10.7,49.15,6581
DE262,Ammersee,11.1333,48.0166,7500
DE263,Chiemsee and Chiemseemoore,12.45,47.8833,13315
DE264,Danube valley: Regensburg-Vilshofen,12.6333,48.8333,17733
DE265,Mangfall mountains and Rotwand area,11.9,47.5666,16738
DE266,Danube valley: Neu-Ulm - Lauingen incl.,10.2,48.4833,10588
DE267,Karwendel and Karwendel foothills,11.4166,47.5833,19613
DE268,Ammergau mountains,10.9166,47.55,28877
DE269,Nürnberger Reichswald,11.2166,49.4,43581
DE270,Vorderer Steigerwald - Windsheimer Buch,10.3166,49.5833,87984
DE271,Lech-Donau-Winkel: Lechstausee Feldheim,10.9666,48.7166,2317
DE272,Donau-Auen and Donau-Ried: Höchstädt -,10.65,48.5333,8046
DE273,Orchards at the lower Main,9,50.0833,60474
DE274,Charlottenhofer Weihergebiet and Hirtlo,12.1333,49.3,924
DE275,Aisch-Regnitz-Grund,10.9166,49.75,50698
DE276,Starnberger See,11.3,47.9166,5671
DE277,Main valley: Eltmann - Hassfurt,10.6166,49.9833,1263
DE278,Murnauer Moos and Loisach-Kochel-Moore,11.25,47.6666,13444
DE281,Northern Steigerwald,10.55,49.9,20116
DE282,Lower Inn: Haiming - Neuhaus including,13.1666,48.2833,6500
DE283,Rodachaue / Itzgrund / Oberes Maintal i,10.8833,50.25,40000
DE284,Obersee: Schachener Bucht,9.66666,47.55,200
DE285,Manteler Forst,12.0666,49.7,2698
DE286,Sagasbank and eastern coast of Oldenbur,11.15,54.2333,14600
DE287,Eastern part of Kiel Bight,10.9333,54.4666,59800
DE288,Wismar bay and Salzhaff,11.4333,54.0166,102030
DE289,Schleswig-Holstein Wadden Sea National,8.81666,54.4833,441000
DE290,Oldenburger Graben and Wesseker See,10.8166,54.3,3800
DE291,Eastern part of German Bight (with Heli,8.3,54.2,800000
DE292,Forests of Lauenburg,10.55,53.6333,3542
DE293,Lauerholz,10.7666,53.8666,1200
DE294,Haaler Au lowlands,9.51666,54.1833,1000
DE295,Kudensee,9.21666,53.9666,1800
DE298,Gotteskoogsee,8.78333,54.8666,4700
DE299,Kisdorfer Wohld,10.0666,53.8166,720
DE300,Gülzower Holz and Rühlauer Forst,10.5,53.4833,1200
DE301,Upper and middle reaches of river Krück,9.73333,53.7666,2300
DE303,Moorland belt of Süderelbe-Marschrandmo,9.8,53.45,2498
DE304,Coast and lagoons of Western Pomerania,12.9,54.4333,203810
DE305,Serrahn and Woldegk-Feldberger Hügellan,13.4166,53.3833,64310
DE306,Surroundings of Dassower See,11.9833,53.95,11490
DE307,Großer and Kleiner Jasmunder Bodden wit,13.4333,54.5,21790
DE309,Upper and middle reaches of river Warno,11.65,53.6833,8850
DE310,Lower reaches of river Warnow,12.1,53.9333,7900
DE311,Conventer See,11.9166,54.1333,1830
DE312,Mildenitz Seen,11.95,53.6833,6660
DE313,Parumer See,12.1333,53.7666,5960
DE314,Langenhägener Seewiesen,11.9833,53.6,5190
DE316,Mecklenburgische Schweiz,12.7333,53.7166,77210
DE317,Recknitz and Trebel valley,12.7,54.05,67280
DE318,Woodlands of Western Pomerania,13.6166,53.9833,30550
DE319,Elbe valley of Mecklenburg,11.0166,53.3166,41730
DE320,Griese Gegend,11.2,53.2833,7230
DE321,Farmlands north of Ludwigslust,11.4,53.4333,11200
DE322,Farmlands between Crivitz and Parchim,11.7166,53.5,13230
DE323,Retzower Heide,12.1333,53.3666,2150
DE324,Farmlands west and south of Plauer See,12.2166,53.3833,9600
DE325,Mönchsee,12.55,53.2833,3330
DE326,Western shore of Lake Müritz,12.6333,53.4,7950
DE327,Torgelower See and Varchentiner See,12.8,53.5666,6160
DE328,Farmlands near Tützpatz,13.0833,53.7333,15010
DE329,Tollense-Datze-Raum,13.3833,53.6666,14990
DE330,Caselower Heide,5.08333,53.4333,1900
DE331,Dollart,7,53.3333,5052
DE334,Hasbruch,8.5,53.0666,627
DE335,Thülsfeld reservoir,7.93333,52.9333,464
DE336,Ahlhorner fishponds,8.15,52.9333,1578
DE337,Eschebrügger Wösten,6.8,52.6333,1119
DE338,Engdener Wüste,7.2,52.4333,1680
DE339,Gildehauser Venn,7.1,52.2666,797
DE340,Geeste lowlands near Bramel,8.71666,53.5,671
DE341,Huvenhoopsmor and Breddorfer Wiesen,9.1,53.3833,4266
DE342,Drennhauser Hinterdeich,10.2833,53.3833,370
DE343,Ekelmoor (moorlands near Sittensen),9.56666,53.2666,1506
DE344,Hohe Geest near Himbergen / Bad Bodente,10.75,53.0833,16623
DE345,Military training area Munster-Nord,10.1666,53.05,12746
DE347,Military training area Munster-Süd,10.0833,52.95,4090
DE348,Unterlüß / Kiehnmoor,10.2833,52.9,2481
DE349,Military training area Bergen-Hohne,9.83333,52.8,13644
DE350,Aschauteiche and Südheide,10.2833,52.7666,9270
DE351,Mittleres Wietingsmoor,8.65,52.7,2036
DE354,Leine valley Koldingen-Ruthe,9.83333,52.25,620
DE355,Hildesheim forest,9.83333,52.1333,3915
DE356,Großes Moor near Gifhorn,10.6333,52.5666,3191
DE358,Forests south of Wolfsburg,10.7,52.3666,4440
DE359,Braunschweig sewage farms,10.4166,52.3166,251
DE360,Lengeder Teichgebiet,10.3166,52.2,153
DE361,waterbird reserve Schöppenstedter Teich,10.7333,52.15,12
DE362,Sewage pond Ida near Othfresen,10.3666,52.0166,32
DE363,Oker valley near Vienenburg,10.5666,51.8666,950
DE365,Solling,9.58333,51.75,42029
DE366,Lower Saxonian North Sea off the East F,7.41666,53.7,70000
DE367,Hund- and Paapsand,6.91666,53.3333,2557
DE368,Ewiges Meer,7.41666,53.55,1277
DE370,Beppener Bruch,8.98333,52.9,3251
DE371,Drawehn,10.9166,53.0333,4851
DE372,Innerste valley near Langelsheim,10.1666,52.1,565
DE373,Southern Harz near Zorge,10.65,51.6333,1179
DE374,Unteres Eichsfeld,10,51.5,14633
DE375,Georgsdorfer and Dalum-Wietmarscher Moo,7.13333,52.5833,6485
DE376,Esterweger Dose,7.65,53.05,5323
DE377,Klietzer Heide,12.1333,52.65,2252
DE378,Altengrabower Heide,12.2166,52.1666,6260
DE379,Mouth of river Schwarze Elster,12.8,51.8,3354
DE380,Upper Harz mountains,10.65,51.8,6112
DE381,Glücksburger Heide,12.9833,51.8666,1790
DE382,Annaburger Heide,13.1166,51.7,6076
DE383,Colblitz-Letzlinger Heide,11.5833,52.45,20000
DE384,Farmlands near Kusey (Altmark),11.1666,52.55,5500
DE385,Elbe lowlands near Bertingen,11.9,52.3666,2800
DE386,Lignite pits Geiseltal,11.8833,51.3166,1000
DE387,Farmlands Prignitz with Stepenitz valle,11.8333,53.2333,57076
DE388,Alte Oder,14.1333,52.9,1230
DE389,Carmzower Mühlensee,14.05,53.3666,39
DE390,Dammer Moor,14.2666,52,665
DE391,Dosse-Jäglitz lowlands,12.3333,52.8166,18497
DE392,Elbaue Mühlberg,13.2,51.4333,1783
DE393,Feldmark Gartz / Gartzer Bruch,14.3666,53.25,7504
DE394,Gransee / Zehdenick / Schnelle Havel,13.3833,52.9333,42890
DE395,Grünewalder Lauch - Pulsnitzniederung,13.6833,51.45,11376
DE396,Havelseen Werder-Potsdam,12.9666,52.3333,2336
DE397,Heathlands of Lieberose-Staakow-Reicher,14.35,51.95,11453
DE398,Hoher Fläming Görzke-Kranepuhl,12.4166,52.1333,7298
DE399,Lausitz mining areas,14.3,51.5833,11299
DE400,Luchgebiet Spaatz-Hohennauen-Witzke,12.3666,52.6833,8221
DE401,Luckauer Becken,13.7833,51.8,10002
DE402,Malxe lowlands / Lakomaer Teiche,14.3833,51.85,9126
DE403,Niederlausitzer Heidegebiete,13.5333,51.8,22736
DE404,Rangsdorfer See lowlands / Prierowsee,13.45,52.25,4879
DE405,Nuthe - Nieplitz lowlands,13.1166,52.25,5599
DE406,Oderbruch,14.45,52.6333,25993
DE407,Oder lowlands Lebus-Ratzdorf,14.6333,52.25,9921
DE408,Plane lowlands,12.5833,52.2666,7768
DE409,Ragow-Mühlroser Heide,14.3333,52.25,5325
DE410,Randow-Welse-Bruch / Uckermärkische Agr,14.1333,53.2333,44949
DE411,Rittgartener Heide / Amalienhof,13.65,53.4333,2491
DE412,Schlaubetal,14.5166,51.95,4715
DE413,Lake region Kyritz,12.4166,53,1277
DE414,Trappenschongebiet Jüterbog,13.1666,51.9333,9900
DE415,Uckertal / Unteruckersee,13.85,53.3333,10236
DE416,Zschornoer Heide,14.6666,51.5833,860
DE417,Hambacher Forst,6.53333,50.8833,1549
DE418,Davert,7.61666,51.85,5074
DE419,Egge,8.95,51.5666,8240
DE420,Rurtal,6.4,50.6,9300
DE421,Vogelsberg,9.25,50.55,52000
DE423,Wetterau,8.91666,50.4166,8000
DE424,Middle Fulda valley,9.75,50.9,3200
DE426,Riedforst near Melsungen,9.61666,51.1833,6900
DE427,Schwalmaue around Schwalmstadt,9.23333,50.8833,2200
DE428,Neckar valley near Hirschhorn (HP),8.86666,49.45,3300
DE429,Neckar oxbows in the Hessian Ried,8.58333,49.75,2400
DE430,Werra lowlands near Wanfried and Eschwe,10.1166,51.1833,2600
DE431,Hoher Meißner/Plesse-Konstein,9.85,51.2,5500
DE433,Mönchbruch of Mörfelden and Rüsselsheim,8.53333,50,1000
DE434,Hauberge near Haiger,8.25,50.85,10000
DE435,Lower Gersprenz lowlands incl. Reinheim,8.88333,49.9,2000
DE436,Spessart near Bad Orb,9.41666,50.2,4500
DE437,Former August-Euler airfield,8.58333,49.85,119
DE439,Untermain,8.83333,50.1333,1600
DE441,Rendaer Höhe,10.0833,51.0833,593
DE443,Southern Sandstone-Odenwald,9,49.5666,20000
DE447,Werra meadows near Bad Salzungen,10.0833,50.85,2450
DE448,Zschorna pond area (Oberlausitz heathla,13.7166,51.2666,1131
DE449,Ponds of Biehla-Weißig (Oberlausitz hea,14.1166,51.3333,870
DE450,Dubringer Moor (Oberlausitz heathland a,14.1833,51.4,1708
DE451,Ponds near Commerau / Truppen (Oberlaus,14.2666,51.3333,377
DE452,Quitzdorf reservoir (Oberlausitz heathl,14.8,51.2666,1580
DE453,Niederspree pond area (Oberlausitz heat,14.8833,51.4,2211
DE454,Königsbrücker Heide (Oberlausitz heathl,13.8833,51.3333,6932
DE455,Mittlere Mulde,12.6333,51.5,9088
DE456,Leipziger Auwald,12.3,51.3666,5738
DE457,Wermsdorf pond and forest regiont,12.9166,51.3166,4297
DE458,Stöhna reservoir,12.4166,51.2166,273
DE459,Buchholz Otterwisch,12.6333,51.2166,316
DE460,Gohrischheide,13.3333,51.4,3396
DE461,Lower Röder valley and Colmnitzer Platt,13.45,51.35,10748
DE462,Former mining area of Hoyerswerda,14.2166,51.5,7636
DE463,Jeßnitz and Thury near Milstrich,14.1833,51.3166,300
DE464,Ponds between Caßlau and Eutrich,14.2833,51.2833,299
DE465,Ponds between Neschwitz and Lomske,14.3833,51.25,822
DE468,Moritzburger Kleinkuppenlandschaft,13.75,51.1666,3085
DE469,Oberlausitzer Gefilde near Weißenberg,14.6666,51.1666,6059
DE470,Elbe meadows at Großes Ostragehege Dres,13.7,51.0666,70
DE471,Hohwald and Valtenberg near Neustadt in,14.2666,51.0666,225
DE473,Forest of Herrnhut,14.7666,51.05,892
DE474,Königsholz of Niederoderwitz,14.7666,50.9666,592
DE475,Oybin,14.75,50.85,5
DE476,Jonsdorfer Felsenstadt,14.6833,50.85,64
DE477,Lückendorf meadows,14.7666,50.8333,111
DE478,Mulde valley between Nossen and Roßwein,13.2166,51.0666,602
DE479,Aschbach valley near Siebenlehn,13.25,51.0166,542
DE480,Elster slopes north of Plauen,12.1666,50.5666,383
DE481,Wisenta valley at Mühltroff,11.9166,50.55,844
DE482,Würschnitzbach valley and forest near S,12.3,50.3833,1133
DE483,Geyerscher Wald,12.8833,50.6166,5182
DE484,Zschopau valley between Wolkenstein and,13.0666,50.7,3002
DE485,Forest near Olbernhau,13.3166,50.6333,631
DE487,Eich-Gimbsheimer Altrhein,8.36666,49.7666,110
DE491,Wildenburger Land / Giebelwald,7.8,50.8666,13000
DE492,Wissen Herdorf / Sieg,7.96666,50.75,11000
DE493,Nister valley and Nauberg,7.85,50.6833,1600
DE494,Ahrmündung,7.26666,50.55,165
DE495,Oberwesterwald,7.95,50.5833,40000
DE496,Ahrgebirge,6.93333,50.4166,59500
DE497,Engerser Feld,7.5,50.4166,500
DE498,Vulkaneifel,6.66666,50.25,28000
DE499,Mittelrheinisches Becken with Laacher S,7.28333,50.3833,38000
DE500,Lahn slopes,7.76666,50.3166,3500
DE501,Schneifel,6.38333,50.2666,9000
DE502,Middle Rhine valley,7.61666,50.1833,15000
DE504,Middle and Lower Mosel,7.35,50.1833,15000
DE505,Our valley,6.15,50.05,2500
DE506,Forests between Wittlich and Cochem,7.05,50.0333,30000
DE507,Bedhard west of Bitburg,6.45,49.9666,1000
DE508,Soonwald,7.6,49.9166,5000
DE509,Dunes and sands of Mainz - Ingelheim,8.11666,49.9833,3000
DE510,Selz valley between Hahnheim and Ingelh,8.15,49.9,400
DE512,Schwarzwälder Hochwald,7,49.6833,3000
DE513,Nahe valley,7.65,49.7666,18000
DE515,Nordpfälzer Bergland and surroundings (,7.76666,49.65,20000
DE516,Farmland plateau between Ilbesheim and,8.06666,49.6833,3500
DE517,Bobenheim-Roxheimer Altrhein with Silbe,8.36666,49.5666,400
DE519,Haardtrand,8.11666,49.3333,27000
DE520,Neuhofener Altrhein with Prinz Karl - W,8.45,49.4333,350
DE522,Speyerer Wald,8.36666,49.35,8000
DE523,Hornbach and tributaries,7.41666,49.1833,800
DE524,Offenbacher Wald,8.28333,49.2166,5000
DE528,Dahner Felsenland,7.88333,49.15,18000
DE531,Bienwald and Viehstrichwiesen,8.16666,49.0166,15000
DE536,Jungfernweiher,6.96666,50.2166,45
DE543,Saargau Bilzingen / Fisch (RP) and Reng,6.45,49.6,1430
DE544,Sewage ponds Offstein,8.2,49.6,50
DE546,Mosel valley and lower Sauer valley,6.86666,49.8333,65000
DE547,Pferdemosel und Kiesweiher (in Louxemb,6.36666,49.5333,225
DE548,Saarkohlenwald,6.98333,49.3,2424
DE549,Northern Black Forest,8.33333,48.5,143951
DE550,Central Black Forest,8.25,48,94726
DE551,Southern Black Forest,8.06666,47.75,84091
DE552,Vorland of the Mittlere Schwäbische Alb,9.58333,48.6666,36690
DE553,Mittlere Schwäbische Alb with Albuch,9.66666,48.5666,247564
DE554,Bodanrück and Mindelsee,9.01666,47.75,8924
DE556,Rhine flats between mouth of Rench and,8.08333,48.8166,3363
DE558,Southern Karlsruhe Hardt,8.33333,48.9333,2789
DE559,Schwetzinger and Hockenheimer Hardt,8.6,49.3333,3537
DE562,Bruchgraben Baden-Baden,8.18333,48.8,305
DE563,Großes Bruch - Riedmatten,8.1,48.7666,1191
DE565,Renchniederung,8,48.6333,2052
DE566,Kinzig- und Schutterniederung between N,7.83333,48.4833,2765
DE568,Elzniederung between Kenzingen and Rust,7.73333,48.25,1021
DE569,Dreisamniederung,7.75,48.1166,1652
DE570,Sewage farm Freiburg,7.76666,48.0166,175
DE574,Mooswälder near Freiburg,7.75,48.0166,3474
DE577,Tüllinger Berg,7.61666,47.6166,291
DE578,Vorbergzone between Zunzingen and Grune,7.68333,47.85,732
DE579,Markgräfler Hügelland near Efringen-Kir,7.58333,47.6666,1532
DE581,Vorbergzone Ettenheim,7.83333,48.25,2112
DE582,Kraichgau near Wiesloch,8.73333,49.3166,538
DE583,Bergstraße Dossenheim-Schriesheim,8.66666,49.4666,401
DE587,Drumlinlandschaft near Überlingen with,9.26666,47.75,2294
DE588,Gravel pits in Hegau,8.88333,47.7833,242
DE589,Ochards around Schlatt am Randen,8.7,47.7666,244
DE590,Baar,8.58333,47.95,20723
DE591,Hedges around Dillendorf,8.4,47.8,571
DE592,Heathlands and Forests in Tauberland,9.65,49.65,1030
DE595,Rotfeld near Gaxhardt,10.3333,49.0166,4
DE597,Sewage ponds Offenau,9.16666,49.25,54
DE598,Lappen near Walldürn,9.36666,49.55,50
DE599,Rohrsee near Bad Wurzach,9.83333,47.8833,159
DE600,Eriskircher Ried of Lake Constance,9.51666,47.6333,562
DE601,Danube valley Scheer-Zwiefaltendorf,9.43333,48.1,4519
DE602,Gravel pits Krauchenwies-Zielfingen,9.25,48.05,1160
DE603,Sauldorfer gravel pits,9.06666,47.9333,214
DE604,Orchards Schwärze near Rottenacker,9.68333,48.2333,43
DE605,Ingerkinger Moore and adjoining forests,9.75,48.2,862
DE609,Illerstausee Ferthofen and Iller up to,10.1,47.9333,117
DE610,Pfrunger and Burgweiler Ried,9.4,47.9166,3425
DE611,Wurzacher Ried,9.86666,47.9166,1857
DE612,Taufach- and Fetzachmoos with Urseen,10.0333,47.7666,380
DE613,Ebenweiler See,9.5,47.9166,118
DE614,Ellerazhofer Weiher,9.96666,47.8166,70
DE615,Neuravensburger Weiher,9.75,47.6333,37
DE616,Schwarzensee and Kolbenmoor with Kolben,9.81666,47.6833,52
DE618,Main valley and Steiger foothills near,10.25,49.9333,5615
DE619,High alps of Allgäu,10.3166,47.3666,20799
DE620,Spessart,9.43333,49.6833,22571
DE621,Rocks and slope forests in the Altmühl,11.8333,48.9,1674
DE623,Altmühltal above Eichstätt and Wellheim,11.0666,48.85,194
DE628,Northern Danube valley and southern Rie,10.5833,48.7166,22633
DE629,Military training area Hohenfels,11.8,49.25,14902
DE630,Military training area Grafenwöhr,11.7666,49.6833,19279
DE631,Schweimker Moor and Lüderbruch,10.6166,52.7833,848
DE632,Wümme lowlands Borgfeld-Fischerhude,8.96666,53.1166,3371
DK001,Ulvedybet and Nibe Bredning,9.5833,57.0333,18530
DK003,Madum Sø,9.9167,56.8333,260
DK004,Rold Skov,9.8333,56.8,7420
DK005,Råbjerg Mile and surrounding heathlands,10.35,57.55,4480
DK006,Jerup Hede,10.3667,57.5333,2320
DK007,Lille Vildmose,10.2167,56.8667,7380
DK008,Coast from Aggersund to Bygholm Vejle,9.1667,57.0333,1660
DK009,Nordre Rønner,10.9333,57.3667,2923
DK011,Hirsholmene,10.6333,57.4833,220
DK012,Løgstør Bredning,9.1667,56.9167,32570
DK013,Eastern part of Vejlerne,9,57.05,4870
DK014,Lovns Bredning,9.1667,56.6667,7590
DK016,Tjele Langsø,9.6667,56.5333,1340
DK017,Ålvand Klithede and Førby Sø,8.4167,56.95,1430
DK018,Vangså Hede,8.4667,57.0167,1410
DK019,Lønnerup Fjord,8.7833,57,460
DK020,Western part of Vejlerne,8.8667,56.9667,3850
DK021,Ovesø,8.5,56.8667,750
DK022,Hanstholm Reservatet,8.6167,57.1167,5110
DK023,Agger Tange and Krik Vig,8.25,56.75,5490
DK024,Hjarbæk Fjord,9.3333,56.55,4260
DK025,Mågerodde and Karbyodde,8.5833,56.75,510
DK026,Dråby Vig and Buksør Odde,8.8333,56.8333,1680
DK027,Glomstrup Vig,8.5833,56.6667,6990
DK028,Nissum Bredning,8.3333,56.6667,13570
DK029,Flyndersø and Skallesø,8.8333,56.5,830
DK030,Norsminde (Kysing) Fjord,10.3333,56,370
DK031,Stavnsfjord and adjacent waters,10.6667,55.9,15450
DK032,Ørkenen and Totten (Anholt Island),11.5833,56.7167,2000
DK033,Salten Langsø,9.5833,56.1,970
DK034,Forest areas south of Silkeborg,9.4667,56.0167,5070
DK035,Mossø,9.8,56.0333,2020
DK036,Horsens Fjord,10.1667,55.85,42880
DK037,Borris Hede,8.6833,55.9167,4760
DK038,Nissum Fjord,8.2333,56.35,10890
DK039,Harboøre Tange,8.25,56.6667,7280
DK040,Venø and Venø Sund,8.6667,56.5833,2920
DK041,Stadil Fjord and Veststadil Fjord,8.15,56.1833,6910
DK042,Heath areas in Sønder Feldborg Plantage,8.9667,56.3167,120
DK043,Ringkøbing Fjord,8.25,56,27720
DK044,Uldum Kær,9.55,55.8667,1050
DK045,Forest areas along the northern part of,9.75,55.7,2690
DK046,Randbøl Hede,9.15,55.6667,1010
DK047,Lillebælt,9.7167,55.35,35060
DK048,Heath areas near Store Råbjerg,9,55.7333,630
DK049,Ho Bugt meadows,8.3167,55.6,2700
DK050,Kallesmærsk Hede,8.15,55.6,6570
DK051,Ribe Holme and meadows at Kongeåen,8.7,55.3333,6660
DK052,Mandø,8.5667,55.2833,850
DK053,Fanø,8.4,55.4333,4370
DK054,Vejen Mose,9.0833,55.5167,460
DK055,Skallingen and Langli,8.25,55.5,2240
DK056,Fiilsø,8.25,55.7,4270
DK057,Vadehavet (Wadden Sea),8.5333,55.2667,115850
DK058,Hostrup Sø,9.45,54.95,1330
DK059,Pamhule Skov,9.3833,55.2167,1100
DK060,Tøndermarsken,8.7167,54.9,6520
DK061,Kongens Mose and Draved Skov,8.9333,55.0333,790
DK062,Tinglev Mose and Sø,9.2667,54.9333,930
DK063,Sønder Ådal,9.05,54.9,2690
DK064,Flensborg Fjord and Nybøl Nor,9.5833,54.8333,3350
DK065,Rømø,8.5333,55.05,7010
DK066,Lindet Skov,8.9,55.15,2340
DK067,Ballum og Husum Enge,8.7167,55.1333,4280
DK068,Forests near Gråsten,9.5333,54.9333,870
DK069,Kogsbøl and Skast Mose,8.7,55.05,560
DK070,Frøslev Plantage and Frøslev Mose,9.2333,54.8167,1700
DK071,Sydfynske Ø-hav,10.3333,55,38440
DK072,Marstal Bugt and the coast of south-wes,10.6667,54.7833,4980
DK073,Vresen and sea area between Fyn and Lan,10.8333,55.1667,3470
DK074,Forests near Brahetrolleborg,10.3833,55.1167,2570
DK075,Odense Fjord,10.5667,55.5,5060
DK076,Nærå Coast and Æbelø area,10.2167,55.6,13060
DK077,Romsø and Hindsholm peninsula,10.8333,55.5,3490
DK079,Ertholmene east of Bornholm,15.1833,55.3167,1257
DK080,Almindingen,14.9667,55.1333,6090
DK082,Bøtø Nor,11.95,54.6333,1710
DK083,Hyllekrog-Rødsand and Fehmarn Belt,11.7167,54.55,100000
DK084,Ulvsund,12,54.9167,8160
DK086,Guldborgsund,11.8333,54.8333,2820
DK087,Maribo lakes,11.5167,54.7667,3810
DK088,Nakskov Fjord and Indre Fjord,11.0333,54.8333,8550
DK089,Præstø Fjord,12.25,55.0833,24640
DK090,Klinteskoven,12.5333,54.9667,1010
DK091,Holmegårds Mose and Porsemose,11.8333,55.3333,1900
DK092,Forests near Vemmetofte,12.2,55.25,1860
DK093,Tystrup-Bavelse Søerne,11.5833,55.3667,1960
DK094,Sejrø Bay and Nekselø,11.3,55.8333,40250
DK097,Hovvig,11.6667,55.9167,240
DK098,Sprogø and Halsskov Rev,11,55.3333,4920
DK099,Saltbæk Vig,11.1667,55.75,3630
DK100,Tissø,11.3333,55.5833,2890
DK101,Bregentved and Gisselfeldt Lakes,12,55.3333,600
DK102,Korshage,11.8333,55.9667,4000
DK103,Wetland north of Gammel Havdrup,12.15,55.5667,100
DK104,Ramsø Mose,12.05,55.5833,220
DK105,Roskilde Fjord,12.0833,55.75,13180
DK106,Arresø,12.1667,56,4610
DK107,Jægerspris Nordskov,11.9833,55.9,1520
DK108,Grib Skov,12.3333,55.9667,6130
DK109,Furesø and Farum Sø,12.4167,55.8,1290
DK110,Saltholm,12.8333,55.6667,7240
DK111,Vestamager and adjacent sea area,12.5333,55.5833,6210
DK112,Hjelm,10.8167,56.1333,70
DK113,Møllesø and Gjorslev,12.3333,55.4167,50
DK114,Sjørring Sø,8.5667,56.95,400
DK116,Bolle and Try meadows,10.2,57.1167,1500
DK117,Store Vildmose,9.8333,57.2167,6000
DK121,Skagerrak-Southwest Norwegian trench,9,57.6666,1600000
DK123,Eastern German Bight,8,54.0833,1150000
DK124,Hellebæk,12.5333,56.05,800
DK125,Skagen,10.6,57.75,1800
DK126,Gilleleje area,12.25,56.1167,1250
DK127,Stevns,12.4333,55.35,1000
DK128,Northwestern Kattegat,11,57.2,580000
DK129,Lille Middelgrund,11.7833,56.95,126000
DK130,Smålandsfarvandet,11.4666,55.0666,135300
DK131,Pomeranian Bay,14.5333,54.4,623500
EE001,Kõrgessaare-Mudaste coast,22.4833,59,4961
EE002,Vanamõisa bay,22.4833,58.7333,1529
EE009,Marimetsa-Õmma,23.9833,58.9333,7636
EE011,Küdema bay,22.2667,58.5333,4519
EE012,Tagamõisa peninsula,21.9166,58.5,11190
EE013,Vilsandi archipelago,21.9,58.35,18214
EE015,Riksu coast,22.0666,58.1833,1686
EE016,Lõu bay,22.15,58.1167,4797
EE020,Kasti bay,22.6167,58.2166,3768
EE021,Siiksaare-Oessaare bays,22.8833,58.3,3902
EE026,Nätsi-Võlla,24.1,58.4833,16874
EE030,Luitemaa,24.5666,58.15,12960
EE031,Põhja-Liivimaa,24.6833,58,14162
EE032,Soomaa,25.1166,58.45,39909
EE034,Ohepalu,25.9333,59.35,5683
EE035,Puhatu mire,27.7333,59.15,13178
EE036,Alam-Pedja,26.2166,58.4666,34692
EE038,Lahepera lake,27.2166,58.5667,255
EE039,Ropka-Ihaste,26.7667,58.3333,953
EE040,Mouth of the Emajõgi river and Piirissa,27.3167,58.3833,32977
EE041,Meelva bog,27.35,58.1333,2073
EE042,Meenikunno bog,27.3,57.9333,2651
EE043,Koiva-Mustjõe,26.4333,57.6,2548
EE045,Nõva-Osmussaar,23.45,59.1833,23924
EE049,Irbe strait,21.85,57.8166,206640
EE054,Tuhu-Kesu,24.2166,58.6833,19260
EE055,Kärevere,26.5166,58.4333,2375
EE056,Räpina polder,27.5,58.1333,1752
EE059,Pärnu bay (NEW),24.05,58.25,109330
EE061,Taarikõnnu-Kaisma,24.6666,58.7,7513
EE062,Lavassaare,24.2833,58.55,10260
EE063,Kahtla-Kübassaare,23.1333,58.4166,14355
EE064,Koigi,22.9666,58.5,2364
EE065,Mullutu,22.3666,58.25,6801
EE067,Väinameri,23.25,58.7666,279557
EE068,Käntu-Kastja,24.0833,58.7833,1181
EE069,Suursoo-Leidissoo,23.7166,59.1166,22417
EE070,Pakri,24.2166,59.35,21039
EE071,Kõnnumaa-Väätsa,25.1166,58.9666,19898
EE072,Kolga bay,25.2333,59.5666,2511
EE073,Lahemaa,25.8666,59.5833,72504
EE074,Põhja-Kõrvemaa,25.6833,59.3666,14162
EE075,Kõrvemaa,25.55,59.15,22929
EE076,Kunda,26.4833,59.5166,286
EE077,Vaindloo island,26.3666,59.8166,52
EE078,Tudu,26.75,59.15,4911
EE079,Sirtsi,26.8166,59.2666,5116
EE080,Muraka,27.1166,59.15,18306
EE081,Agusalu,27.55,59.0833,11968
EE082,Struuga floodplain,27.7333,59.0333,1197
EE083,Peipsi,27,58.7833,1842
EE084,Vooremaa,26.7,58.5666,3733
EE085,Haanja,27.0333,57.7333,16903
EE087,Karula,26.4833,57.7,13014
EE088,Otepää,26.4333,58.05,22825
EE089,Võrtsjärv,26.0666,58.25,30600
EE090,Rubina,25.7666,58.0666,1981
EE091,Parika,25.7833,58.5,2319
ES004,Costa de la Muerte (North coast),-8.9333,43.2333,9650
ES006,Cape Candelaria-Ortigueira estuary-Cape,-7.8667,43.6667,6700
ES007,Eo river estuary-Barayo beach-Ría de Fo,-7.0667,43.55,7500
ES008,La Limia,-7.6667,42.1667,32800
ES009,Ancares mountains,-6.8333,42.8333,50600
ES010,Montes Aquilanos range,-6.5,42.3333,55000
ES011,La Cabrera mountain range,-6.75,42.25,73700
ES012,Muniellos,-6.7333,43.0833,24100
ES013,Degaña-Hermo,-6.5,42.9167,32000
ES014,Babia-Somiedo,-6,43.1667,166860
ES016,Central ranges of the Cantabric mountai,-5.3667,43.1,117500
ES017,Cape Busto-Luanco,-6,43.5833,6000
ES018,Ribadesella-Tina Mayor,-4.75,43.4167,3600
ES019,Riaño,-5,43.0833,70000
ES020,Picos de Europa mountain range,-4.8333,43.1667,132000
ES021,Fuentes Carrionas,-4.6667,42.9167,66000
ES022,Peña Labra and Cordel mountain ranges,-4.3333,43,110000
ES023,River Ebro dam,-3.95,43,11600
ES024,Tina Menor-Sarnosa island-Oyambre,-4.3333,43.4167,1100
ES025,Portios islets-Conejera island,-4,43.5,10
ES026,Santander bay-Mouro islet,-3.75,43.4167,3300
ES027,Santoña marshes,-3.5,43.5,6907
ES028,Humada-Peña Amaya,-4,42.6667,41000
ES029,Upper Ebro and Rudrón canyons,-3.5833,42.75,74500
ES031,Obarenes mountains,-3.25,42.6667,35000
ES032,Valdegovía-Arcena mountain range,-3.1833,42.8333,20000
ES033,La Losa-Orduña (Salvada mountain range),-3.0667,43.0167,20000
ES034,Sobrón canyon,-3.0833,42.7667,4800
ES035,Guernica estuary-Cape Ogoño,-2.6833,43.3667,4000
ES036,Izki mountains,-2.5,42.6667,9250
ES037,Chingudi-Bidasoa estuary,-1.7833,43.3667,525
ES038,Tierra de Campos steppes,-5.2,42.15,268000
ES040,Esla dam,-5.7833,41.6667,22300
ES041,Belver de los Montes-Gallegos del Pan,-5.4167,41.7,40300
ES042,River Pisuerga at Dueñas,-4.5167,41.8333,2300
ES043,Carrión-Frómista,-4.5167,42.25,58500
ES044,Cerrato high moor,-4,41.9167,108000
ES045,La Demanda mountains,-3,42.25,133000
ES046,Urbión and Cebollera Mountain Ranges,-2.75,42.0833,142000
ES047,Gorges of Iregua,-2.3333,42.2833,23400
ES048,Arnedillo-Isasa crag,-2.1667,42.1667,5530
ES049,Alcarama mountain and Alhama river,-2,41.9167,10500
ES050,River Lobos canyon,-3.1,41.7833,9580
ES051,Arlanza Valley-Peñas de Cervera,-3.4167,42,26000
ES052,Montejo de la Vega-Riaza canyon,-3.5833,41.5333,9400
ES053,Duratón canyon,-3.8333,41.3333,8800
ES055,River Moros,-4.3,41.0167,11500
ES056,Northern slope of Guadarrama mountain r,-4.0833,40.8667,54500
ES059,Castronuño-Zamora,-5.25,41.5,19500
ES061,Tierra de Campiñas steppes,-5.15,41.15,189600
ES063,Arribes del Duero-Fermoselle,-6.25,41.4167,53000
ES064,Río Huebra-Arribes del Duero,-6.75,40.8333,170000
ES065,Campo de Argañán,-6.6667,40.5,47000
ES066,Peña de Francia,-6.1667,40.5,65500
ES067,Gredos and Candelario mountain ranges,-4.9167,40.3333,173600
ES068,Tietar valley,-4.85,40.25,86000
ES070,El Escorial-San Martín de Valdeiglesias,-4.1667,40.5,198400
ES071,El Pardo-Viñuelas,-3.75,40.5833,34000
ES072,Redbeeds and copses of Aranjuez,-3.6667,40,18000
ES073,Cortados del Jarama,-3.5167,40.1667,25000
ES074,Talamanca-Camarma,-3.4167,40.6667,52000
ES075,Alcarria de Alcalá steppes,-3.3,40.3167,8000
ES076,Alto Lozoya-La Pedriza,-3.8667,40.8333,55000
ES077,Ayllón mountain range,-3.3333,41.25,187000
ES079,Tiermes-Caracena,-2.5,41.3333,45300
ES081,Layna high moors,-2.3333,41.0833,2100
ES082,Las Cañas lake,-2.4,42.4833,101
ES083,Echauri crags,-1.8333,42.8,1400
ES084,Gorramendi mountain and Itxusi crags,-1.5,43.1667,6300
ES085,Roncesvalles-Irati-Abodi mountain range,-1.25,43,39000
ES086,Areta,-1.3667,42.7833,19500
ES087,Leyre,-1.0667,42.7,23500
ES089,Pitillas and Dos Reinos lagoons,-1.5667,42.4,260
ES091,Cinco Villas ponds,-1.1667,42.1667,860
ES092,Moncayo mountain range,-1.8333,41.75,47600
ES093,River Jalón canyon,-1.5,41.5,23500
ES095,Gallocanta lake,-1.5,40.9333,30280
ES097,Montes Universales-Albarracín mountain,-1.6667,40.4167,80300
ES098,Campo Visiedo,-1.0833,40.6667,18000
ES100,River Martín canyons and Arcos mountain,-0.75,40.9167,38800
ES102,Lower course of the river Huerva,-1,41.4167,37000
ES103,Belchite-Mediana,-0.75,41.3333,53000
ES105,Monegrillo-Pina steppe area-Pina,-0.5833,41.5833,43100
ES106,Los Monegros (South),-0.25,41.4167,49000
ES107,Valdurrios-Serreta Negra and Los Rincon,0.1667,41.3333,49500
ES108,Lower course of the river Matarraña-Rib,0.3333,41,73500
ES109,Rivers Cinca and Alcanadre riverine for,0.2,41.7833,9450
ES110,Ballobar-Candasnos,0.2,41.6167,26000
ES111,Cinca river rice fields and steppe area,0.05,41.8333,14400
ES113,Alcubierre and Sigena mountain ranges,-0.5,41.6667,64500
ES115,Zuera mountains,-0.9167,42,35000
ES116,Tormos reservoir (La Sotonera),-0.65,42.0833,7500
ES117,Bajo Alcanadre-Serreta de Tramaced,-0.0833,42,17000
ES118,Guara mountain range,-0.1667,42.3333,95000
ES119,Oturia-Canciás,-0.1667,42.5,33520
ES120,Santo Domingo-Riglos-Gratal,-0.6667,42.4167,45000
ES124,Collarada-Telera,-0.4167,42.6667,21000
ES125,Panticosa-Vignemale-Tendeñera,-0.1667,42.75,32000
ES127,Gistaín-Cotiella,0.4167,42.5833,42000
ES128,Posets-Maladeta,0.5,42.6667,44700
ES129,Turbón-Espés-Sis,0.5833,42.4167,43000
ES130,San Mauricio-Bohí-Beret,1,42.6667,120000
ES131,Sant Gervás mountains,0.9167,42.3333,24500
ES132,Boumort mountains,1.1667,42.3333,54000
ES133,Monteixo-L'Orri-Tornafort,1.3333,42.5,65000
ES135,Cadí mountains,1.6667,42.3333,69600
ES136,Fresser-Setcases,2.3333,42.4167,38500
ES137,Ampurdán marshes,3.1167,42.2,5454
ES138,Medas islands,3.2167,42.0333,21
ES139,Mountains of Barcelona,2.0167,41.65,124000
ES140,Llobregat delta,2.1333,41.2667,2200
ES141,Montagut and Montmell mountains,1.5,41.3333,44300
ES142,Lerida steppes,1.1333,41.6667,62500
ES143,Montsech and Montgai mountains,0.9167,42.0833,49000
ES144,Cogul-Alfés steppes,0.6667,41.5,18000
ES145,Montsant and Prades mountains,0.8333,41.3333,80000
ES146,Cardó,0.8,41,68500
ES147,Pass of Beceite-Turmell mountain,0.25,40.8333,107000
ES148,Ebro delta,0.7333,40.7167,32000
ES149,Morella pass,-0.1667,40.5833,43000
ES150,Peñagolosa,-0.4167,40.25,83000
ES151,Espadán mountain range,-0.3333,39.8333,59400
ES152,Prat de Cabanes-Torreblanca,0.2,40.2333,860
ES153,Columbretes islands,0.6667,39.9167,2500
ES154,River Mijares mouth,-0.0167,39.95,375
ES157,Turia canyon and Los Serranos,-1,39.75,135000
ES158,Rivers Cabriel and Júcar canyons,-1.1333,39.3333,163000
ES159,Albufera de Valencia marshes,-0.25,39.3333,21120
ES160,La Safor and North Alicante mountain ra,-0.5167,38.75,102000
ES161,Enguera mountain range-La Canal de Nava,-0.8,39,52500
ES162,Pego-Oliva marshes,-0.0833,38.8333,1290
ES163,Marina mountain ranges,-0.25,38.6667,102300
ES164,Alicante islets,0.15,38.5,40
ES166,Santa Pola salt-pans,-0.5833,38.2167,2496
ES168,El Valle,-0.9167,38,24000
ES170,Littoral islets of Murcia and Almería,-1,37.5833,300
ES171,Fausilla mountains,-0.8333,37.5833,900
ES172,Muela mountain range and Cape Tiñoso,-1.1833,37.5833,11700
ES173,La Almenara mountain range-Cape Cope,-1.5,37.5,25850
ES175,Guadalentín saltmarshes,-1.4167,37.75,6800
ES178,Quipar reservoir,-1.6667,38.25,22000
ES179,Ricote and Nevela mountain ranges,-1.25,38.25,9500
ES182,Pétrola-Almansa-Yecla,-1.3333,38.75,75800
ES184,Campo de Montiel,-2.8333,38.6667,153500
ES185,San Clemente-Villarrobledo,-2.5,39.3333,103000
ES186,Canyons on the middle section of the Ca,-1.6667,39.8333,52300
ES187,Cuenca mountain ranges,-2,40.4167,102000
ES188,Upper sections of the rivers Tajo and T,-2.25,40.8,157000
ES190,River Mesa canyons,-1.9,41.1833,12500
ES191,Entrepeñas and Buendía reservoirs,-2.75,40.5,38500
ES192,El Hito,-2.6833,39.8667,24000
ES193,Tarancón-Ocaña-Corral de Almaguer,-3,40,129100
ES194,Tembleque-La Guardia plains,-3.5,39.6667,128000
ES195,Alcázar de San Juan-Quero endorreic lag,-3.1667,39.5,58500
ES196,Pedro Muñoz-Manjavacas endorreic lagoon,-2.75,39.4167,41500
ES198,Castrejón reservoir,-4.3333,39.8,3800
ES199,Torrijos,-4.25,40,28600
ES200,Malpica island (River Tagus),-4.5667,39.9167,4
ES201,Rosarito and Navalcán reservoirs-La Igl,-5,40.1667,70000
ES202,Oropesa plains,-5.1667,40,45500
ES203,Azután reservoir,-5.1667,39.8333,933
ES204,Toledo mountains-Cabañeros,-4.3333,39.5,324500
ES205,Canalizos mountain range (Saceruela),-4.5,38.8333,100000
ES206,Campo de Calatrava,-4.55,38.8333,102000
ES207,Alcudia valley and mountain range,-4.5,38.6667,226300
ES208,Madrona and Andújar mountain ranges,-4,38.3333,212300
ES209,Aldeaquemada-Dañador,-3.1667,38.4167,46000
ES210,Cazorla and Segura mountain ranges,-2.6667,38,250000
ES211,Puebla de Don Fadrique-Las Cañadas,-2.3333,37.8333,52140
ES212,María mountain range-Los Vélez,-2.0833,37.0333,82880
ES214,Hoya de Guadix,-3.1667,37.4167,47000
ES215,Alhamilla mountain range-Campo de Níjar,-2.3333,37,80000
ES216,Mountain range and saltpans at Cabo de,-2.0833,36.8333,46100
ES217,Tabernas desert,-2.5,37.0833,25000
ES218,Gádor mountain range,-2.75,36.8833,57210
ES220,Chafarinas Islands,-2.4333,35.1833,50
ES222,Sierra Nevada mountain range,-3.1667,37.0833,245000
ES223,Prelittoral mountain ranges of Granada,-3.6667,36.8333,125000
ES225,Antequera mountain range-El Chorro,-4.5833,36.9167,23500
ES226,Mountain ranges of Cordoba,-4.3333,37.4167,63000
ES227,Mountain ranges south of Jaén,-3.8333,37.5,200000
ES228,Middle section of river Guadalquivir re,-3.35,37.9167,663
ES231,Conde,-4.2,37.5833,420
ES232,Córdoba countryside,-4.55,37.8333,116000
ES233,Hinojosa del Duque-El Viso,-5.1667,38.5,30000
ES234,Los Blázquez-La Granjuela-Fuenteovejuna,-5.3333,38.3333,32000
ES235,Sierra Morena de Córdoba,-5.2333,37.9333,119715
ES236,Sierra Morena de Sevilla,-6,37.8333,164840
ES237,Carmona countryside,-5.6667,37.25,18200
ES238,Ecija-Osuna plain,-5.1667,37.4167,62200
ES241,Mountain ranges of Ronda,-5.1,36.5833,105000
ES242,Líjar mountain range-Zaframagon crag,-5.3833,36.8667,6850
ES243,Ubrique and Grazalema mountain ranges,-5.4167,36.6667,90500
ES244,Cabras,-5.5833,36.4167,133500
ES249,Tajo de Barbate coastal cliffs,-6,36.2,2017
ES250,La Janda,-5.85,36.25,20000
ES251,Cádiz bay,-6.3333,36.5833,12500
ES252,Medina and Puerto Real lagoons,-6.05,36.6167,4900
ES254,Bornos reservoir,-5.5667,36.75,2500
ES255,Medina-Sidonia,-5.9167,36.6167,22000
ES257,Los Tollos lake,-6,36.8667,100
ES258,Lebrija,-5.85,36.8667,7600
ES259,Guadalquivir marshes,-6.4167,37,230000
ES260,Condado-Campiña,-6.65,37.3667,56500
ES261,Odiel and Tinto marshes and Huelva coas,-6.8333,37.25,14900
ES262,River Piedras marshes and Rompido sandb,-7.15,37.2333,3120
ES263,Isla Cristina and Ayamonte marshes and,-7.35,37.2166,3390
ES264,West Andévalo,-7.25,37.5,45800
ES265,Sierra Pelada mountain range,-7.0833,37.9167,48000
ES266,Las Contiendas mountain range,-6.8333,38,35000
ES267,East mountain range of Huelva,-6.5,37.9167,71000
ES268,Fuente de Cantos-Montemolín,-6.25,38.1667,49000
ES269,Azuaga-Llerena-Peraleda de Zaucejo,-5.6667,38.3333,147000
ES270,Central Badajoz mountain ranges,-6.0833,38.5833,90000
ES271,Bienvenida-Usagre-Ribera del Fresno,-6.25,38.3333,6700
ES272,Valuengo reservoir,-6.6667,38.3333,11200
ES273,Jerez de los Caballeros dehesas,-6.8333,38.25,160000
ES274,Villanueva del Fresno,-7.1667,38.3333,7800
ES275,Valongo,-7.25,38.6667,2800
ES276,Olivenza-La Albuera,-6.8333,38.8333,79000
ES277,Alange,-6.25,38.6667,66500
ES278,Villalba de los Barros,-6.5833,38.6667,12500
ES279,Puerto de Mejoral-Almorchón-Cabeza del,-5.25,38.6667,82500
ES280,La Serena,-5.5,38.8333,109800
ES281,Siruela-Agudo,-5,39,66000
ES282,Cijara reservoir,-4.8333,39.3333,73500
ES283,Puerto Peña reservoir-Valdecaballeros,-5.1667,39.25,32000
ES284,Pela mountain range-Orellana reservoir-,-5.4167,39.0833,140000
ES285,Don Benito-Guareña,-6,38.8333,31000
ES286,Valdehornillos-Santa Amalia,-5.85,39.0833,23000
ES287,Montánchez mountain range-Cornalvo rese,-6.1667,39.1667,54500
ES288,Mérida-Montijo reservoir,-6.4167,38.9167,4100
ES289,Lácara-Morante,-6.4167,39,56900
ES290,Botoa-Villar del Rey,-6.8333,39.1667,47800
ES291,San Pedro mountain range,-6.75,39.3333,295000
ES292,Cedillo reservoir,-7.3333,39.6667,53000
ES293,Brozas-Membrío,-6.8333,39.6667,94000
ES294,Malpartida de Cáceres-Arroyo de la Luz,-6.5,39.4167,43900
ES295,Plain between Cáceres and Trujillo-Alde,-6.1667,39.4167,103000
ES296,Trujillo-Torrecillas de la Tiesa,-5.8333,39.5,108500
ES297,Las Villuercas mountain range,-5.4167,39.6667,216230
ES298,Monfragüe,-5.75,39.6667,155000
ES299,Alcántara reservoir-Cuatro Lugares,-6.5,39.75,116000
ES301,Borbollón reservoir,-6.5833,40.1667,48400
ES303,Gabriel y Galán reservoir,-6.2667,40.2667,55000
ES304,Plasencia and San Bernabé mountain rang,-6,40.0667,18000
ES305,Low Tietar river and La Vera valley,-5.5833,40.0833,73000
ES307,Islets Vedrá and Vedranell,1.2333,38.8667,100
ES312,Salt-pans of Ibiza and Formentera and F,1.4667,38.8167,2600
ES315,Dragonera Island-La Trapa,2.35,39.5833,2660
ES316,Tramuntana mountains,2.8667,39.8167,54953
ES317,Cape Pinar,3.1667,39.8667,2500
ES321,Salobrar de Campos Lagoons-Sa Vall,3.0833,39.3167,2397
ES322,Coastal cliffs between Cape Enderrocat,2.75,39.5,900
ES323,Coastal cliffs between isles of Malgrat,2.5,39.5,440
ES324,Archipelago of Cabrera,2.9167,39.15,10000
ES325,North and east coasts of Minorca and is,4,40.05,17900
ES326,Ravines and pinewoods in central Minorc,4.0833,40,30200
FI001,Lätäseno and Jietajoki mires,22.35,68.6333,43367
FI002,Käsivarsi fjelds,21.5,69,220078
FI003,Lemmenjoki-Hammastunturi-Pulju,25.5,68.5833,529718
FI004,Saariselkä and Koilliskaira,28,68.25,309553
FI005,Pomokaira-Koitelaiskaira,26.3,68,141630
FI006,Pallas and Ylläs fjelds,24.0667,68.0667,89233
FI009,South-eastern Kittilä mires,25.5,67.5,21035
FI010,Kevo,26.7833,69.5833,70075
FI011,Luosto,26.8667,67.1333,7989
FI012,Riisitunturi,28.5333,66.2333,7651
FI013,Joutsenaapa-Kaita-aapa,28.6333,67.0833,10318
FI014,Lämsänaapa-Sakkala-aapa,27.5833,67.2833,12683
FI016,Sammutinjänkä-Vaijoenjänkä,27.5,69.4167,51750
FI017,Kemihaara (Vuotos) mires and forests,27.7,67.0833,38294
FI019,Karunginjärvi lake,23.9833,66.0333,660
FI020,Veittiaapa-Ristiaapa,25.45,65.8,3037
FI021,Martimoaapa-Lumiaapa-Penikat,25.1667,65.8333,12628
FI022,Kilsiaapa-Ristivuoma,24.8,66.3333,7823
FI023,Tornionjoki Delta,24.2333,65.7833,526
FI024,Rumala-Kuvaja-Oudonrimmet,26.7,64.3667,4837
FI025,Elimyssalo,30.4,64.1833,8286
FI026,Juortanansalo,29.8333,64.5667,5454
FI027,Krunnit archipelago,24.9167,65.3833,4579
FI028,Oulu region wetlands,25.1667,64.9167,81781
FI029,Syöte-Salmitunturi,27.6,65.6167,31395
FI030,Oulanka-Sukerijärvi,29.2,66.4,29972
FI032,Pajupuronsuo-Isosuo-Kivisuo,28.8833,65.7,5793
FI033,Haapavesi wetlands,25.3833,64.2167,2500
FI034,Olvassuo-Oravisuo-Näätäsuo-Sammakkosuo,27.1333,65.1333,27610
FI035,Valtavaara-Pyhävaara,29.2,66.1667,810
FI036,Kitka lake,28.7,66.15,12516
FI037,Litokaira,26.2833,65.75,30405
FI038,Ahmasjärvi lake,26.4167,64.6333,414
FI039,Rummelö-Harrbodan,23.1667,63.8667,240
FI040,Rahja archipelago,23.6,64.1833,11673
FI041,Kokkola and Kälviä archipelago,23.0667,63.9333,20340
FI042,Sundominlahti Bay and Söderfjärden,21.5833,63,4570
FI043,Luoto archipelago,22.6333,63.7833,17240
FI044,Uusikaarlepyy archipelago,22.3333,63.5667,7707
FI045,Merenkurkku archipelago,21.0833,63.3333,223652
FI046,Kristiinankaupunki southern archipelago,21.2667,62.0667,7435
FI047,Lapväärti wetlands,21.3667,62.1667,1093
FI048,Lålby fields,21.4667,62.2667,200
FI049,Alajoki,22.9167,63.1,438
FI050,Värtsilä valley,30.6333,62.2,745
FI052,Outokumpu wetlands,29.1667,62.6833,1150
FI053,Outokumpu and Kaavi oligotrophic lakes,28.8333,62.75,14665
FI054,Viklinrimpi,29.4667,62.9333,2651
FI055,Patvinsuo National Park,30.7667,63.1333,10023
FI056,Pitkäranta,30,62.6667,490
FI057,Päätyeenlahti bay,30.1333,62.1167,422
FI058,Ruunaa,30.6667,63.3833,12061
FI059,Maaninka wetlands,27.25,63.1667,3370
FI060,Talaskangas,27.1667,64,5826
FI061,Keski-Kallavesi and Kuhanen Lake,27.75,62.8333,5660
FI062,Linnansaari,28.5,62.0833,24006
FI063,Lake Pihlajavesi,29,61.75,48221
FI064,Kangasala wetlands,24.0667,61.45,1093
FI065,Hollola wetlands,25.5,61.05,913
FI066,Artjärvi wetlands,26.0833,60.7667,1506
FI067,Kukkiajärvi lake,24.6667,61.3333,6621
FI068,Koijärvi lake,24.25,60.9667,200
FI069,Torronsuo and Lake Talpianjärvi,23.6667,60.7333,4923
FI070,Siikalahti bay and Sammallampi lake,29.5333,61.5333,519
FI071,Kirkkojärvi lake and Lupinlahti bay,27.2333,60.5667,760
FI072,Itäinen Suomenlahti National Park,27,60.3333,93253
FI073,Kirkon-Vilkkiläntura Bay,27.7167,60.5167,195
FI074,Teutjärvi and Suvijärvi lakes,26.4833,60.5833,1320
FI075,Pernaja outer archipelago,26.3333,60.2167,18250
FI076,Porvoonjoki Delta,25.6667,60.35,899
FI077,Porvoo outer archipelago,25.6667,60.1667,22570
FI078,Laajalahti bay,24.9333,60.2,1274
FI079,Nuuksio,24.5833,60.2833,6700
FI080,Tammisaari and Inkoo western archipelag,23.5667,59.7667,32666
FI081,Hanko western archipelago,22.9,59.8167,11151
FI082,Kirkkonummi archipelago,24.5,59.9333,11808
FI083,Pori archipelago and wetlands,21.6,61.5333,15441
FI084,Koskeljärvi,22.1167,60.9333,2090
FI085,Rauma and Luvia archipelagos,21.1667,61.25,27371
FI086,Puurijärvi-Isosuo wetlands,22.5667,61.2333,3474
FI087,Köyliönjärvi and Pyhäjärvi lakes,22.1833,61.0833,2759
FI088,Oura and Enskeri archipelagos,21.3333,61.75,9716
FI089,Korppoo and Nauvo southern archipelago,21.5,59.8,73500
FI090,Paimionlahti bay,22.6167,60.3833,696
FI091,Mietoistenlahti bay,21.8167,60.6,2062
FI092,Ruissalo,22.1667,60.4167,904
FI093,Föglö southern archipelago,20.5833,59.8667,17843
FI094,Eckerö and Hammarland archipelago,19.6333,60.4167,16170
FI095,Mulklobb,20.1667,60.4167,6642
FI096,Lågskär-Nyhamn,19.9167,59.8333,2859
FO003,Streymoy,-7,62.1167,125
FO004,Eysturoy,-6.9167,62.2167,60
FO005,Kalsoy,-6.75,62.3,50
FO007,Bordoy,-6.5167,62.25,35
FO011,Nólsoy,-6.6167,61.9667,1028
FO012,Koltur,-6.9667,62,30
FO013,Hestur,-6.8167,61.9667,50
FR001,Baie de Saint-Brieuc,-2.6667,48.5333,3130
FR004,Estuaires du Trieux et du Jaudy,-3.1167,48.8333,9900
FR005,Iles de la Colombière,-2.2,48.6333,4400
FR007,Archipel de Molène,-4.9333,48.3667,10900
FR010,Marais de la Baie d'Audierne,-4.3667,47.8833,3100
FR011,Archipel des Glénan,-4,47.75,4100
FR012,Baies de Morlaix & de Carantec,-3.9,48.6667,7900
FR014,Golfe du Morbihan et Etier de Penerf,-2.7667,47.5667,18800
FR015,Cap Frehel,-2.3167,48.6667,2070
FR016,Baie de Vilaine,-2.4667,47.5,4500
FR019,Baie de Quiberon,-3.0667,47.5333,14750
FR022,Marais de Brière,-2.1667,47.3667,18900
FR023,Estuaire de la Loire,-1.8167,47.2667,21400
FR024,Lac de Grand-Lieu,-1.6667,47.0833,5600
FR025,Baie de Bourgneuf et marais breton,-1.9167,46.9,47000
FR026,Basses Vallées Angevines,-0.4667,47.5667,6450
FR027,Marais salants de Noirmoutier,-2.2667,46.9833,1650
FR029,Forêt du Gavre,-1.8,47.5333,4900
FR030,Marais de Mazerolles-Petit Mars,-1.5,47.3,2700
FR031,Vallée de la Loire : de Nantes à Montso,-0.4,47.3,12000
FR032,Plaine calcaire du sud Vendée,-0.8167,46.4333,18700
FR033,Marais poitevin et baie de l'Aiguillon,-1,46.3333,77900
FR034,Falaise du Bessin,-0.95,49.4,2300
FR035,Baie des Veys et Marais du Cotentin,-1.25,49.3333,37500
FR039,Estuaire de l'Orne,-0.2333,49.2667,1000
FR040,Littoral Augeron,-0.15,49.3667,23100
FR041,Forêts du Perche,0.85,48.5167,50850
FR042,Baie du Mont Saint Michel et Ile des La,-1.5167,48.65,63800
FR043,Cap Fagnet,0.4167,49.8,5700
FR044,Boucle de Pose et de Muids,1.2667,49.2667,5200
FR045,Estuaire et embouchure de la Seine,0.3,49.4333,21100
FR046,Boucle de Moisson,1.6333,49.0333,6150
FR047,Massifs de Fontainebleau et zones humid,2.6333,48.3667,36600
FR048,Bassée et plaines adjacentes,3.1833,48.4,39900
FR049,Marais de Fontenay-le-Vicomte et d'Itte,2.3833,48.55,710
FR050,Etang et Forêt de Villefermoy,2.9333,48.5,4350
FR051,Marais arrières littoraux picards,1.7,50.2667,5550
FR052,Etangs et marais du bassin de la Somme,2.5167,49.9,6900
FR053,Forêts picardes : Compiègne,2.9167,49.4333,32700
FR054,Forêts picardes : massif de Retz,3.0667,49.2333,27650
FR055,Forêts picardes : massif de Saint-Gobai,3.3833,49.5667,19300
FR056,Marais de Sacy,2.55,49.3333,2350
FR057,Vallée de l'Oise de Thourotte à Vendeui,3.1333,49.6,12050
FR058,Marais de la Souche,3.8167,49.6333,4950
FR059,Forêts picardes : massif des Trois Forê,2.65,49.2,32200
FR060,Estuaires picards : baies de Somme et d,1.6,50.25,18200
FR061,Vallées de la Scarpe et de l'Escaut,3.4333,50.4333,11150
FR062,Estuaire de la Canche,1.5667,50.5333,5050
FR063,Marais de Balançon et de Villiers,1.6333,50.4667,1500
FR064,Cap Gris-nez,1.5833,50.8667,8950
FR065,Plateaux agricoles des environs de Fren,1.6833,50.55,11450
FR066,Forêts de Thiérache : Trelon,4.0333,50.0167,22400
FR067,Plateau Ardennais,4.7833,49.8833,94800
FR068,Lacs de la Forêt d'Orient,4.3667,48.3,35800
FR069,Etangs d'Argonne,4.9333,48.9667,44100
FR070,Lac du Der-Chantecoq et étangs latéraux,4.7,48.55,56000
FR071,Barois et Forêt de Clairvaux,4.6333,48.1333,66550
FR072,Vallée de l'Aube,3.8833,48.6167,21500
FR073,Vallée de l'Aisne,4.5167,49.4,18800
FR074,Confluent des vallées de la Meuse et de,4.1333,49.6333,4860
FR075,Bassigny,5.6,48.1,98400
FR076,Etangs de la Woëvre: lac de Madine,5.7333,48.9,1730
FR077,Etangs de la Woëvre: la Chaussée,5.8167,49.0167,6200
FR078,Etang de Lindre,6.7833,48.8,1660
FR079,Vallée de la Meuse,5.4667,49.0167,18100
FR080,Plateau de Delme,6.4667,48.8667,11950
FR081,Val de Chiers et environs de Spincourt,5.6333,49.4,16900
FR082,Fresnes-en-Woëvre-Mars-la-Tour,5.8,49.1,11700
FR083,Bazoncourt-Vigy,6.3333,49.1667,10700
FR084,Forêt de la Reine,5.7333,48.8,16650
FR085,Ried de Colmar et Sélestat,7.4667,48.2167,10100
FR086,Forêt domaniale de la Harth,7.45,47.7667,15700
FR087,Forêt de Haguenau,7.8833,48.8667,21350
FR088,Zones agricoles de la Hardt,7.45,47.95,21800
FR093,Massif des Vosges: Hautes Vosges,6.9333,47.95,88200
FR094,Bassin du Drugeon: Pontarlier-Frasne,6.2,46.85,12500
FR095,Forêts d'altitude du Jura : forêt du Ri,6.2333,46.6667,12300
FR097,Forêts d'altitude du Jura : forêt du Ma,6.0333,46.4167,1970
FR098,Forêt de Chaux,5.65,47.0833,21700
FR099,Vallée de la Saône de Corre à Broye,5.7667,47.1167,14050
FR100,Basse Vallée du Doubs : Dole Sud,5.3333,46.9833,11850
FR101,Estuaire de la Charente,-1,45.95,5400
FR102,Vallée de la Charente et de la Seugne (,-0.6667,45.7667,8300
FR103,Vallée de la Charente : amont d'Angoulê,-0.0667,45.7667,4650
FR104,Anse de Fouras,-0.95,46.0167,17550
FR105,Ile d'Oléron,-1.1667,45.9,26500
FR108,Plaine de Niort (sud-est),-0.35,46.2333,14300
FR109,Plaine de Niort (nord-ouest),-0.5667,46.4,12500
FR110,Plaines de Saint-Jouin de Marne et d'As,-0.0667,46.8333,12400
FR111,Le Pinail,0.4833,46.65,6150
FR112,Plateau de Bellefonds,0.6167,46.6333,2550
FR113,Plaines de Mirebeau et de Neuville-du-P,0.2,46.6667,10250
FR114,Region de Pressac,-0.5167,46.1167,3500
FR115,Marais et estuaire de la Seudre,-1.1,45.7667,14800
FR116,Plaine de Saint-Jean-de-Sauves,0.0667,46.9,6550
FR117,Plaine de Villefagnan,0.0667,45.9667,9050
FR118,Estuaire de la Gironde : marais de la r,-0.8,45.4333,2580
FR119,Vallée de la Loire : environs de Blois,1.4167,47.6167,22200
FR120,Vallée de la Conie et Beauce centrale,1.6,48.2333,71600
FR121,Petite Beauce,1.3333,47.7333,52200
FR122,Vallée de l'Yèvre,2.2333,47.15,2200
FR123,Brenne centrale,1.2167,46.75,22000
FR124,Brenne Sud,1.3,46.6667,6660
FR125,Queue de Brenne : Etang des Loges,1.5667,46.75,770
FR128,Vallée de la Loire : confluence Loire-V,0.1833,47.2,5080
FR129,Basse vallée de L'Indre,0.3333,47.2667,1900
FR130,Vallée de la Loire : environs de Montlo,0.8667,47.4,510
FR131,Etangs de Sologne: St Viatre,1.8167,47.4833,37500
FR132,Etangs de Sologne: étang de l'Arche,1.5,47.3333,165
FR134,Lac de Rillé et forêts voisines,0.1333,47.3833,18800
FR135,Vallée de la Loire : Orléanais,2.2333,47.7,7750
FR136,Forêt d'Orléans: massifs d'Ingrannes et,2.3333,47.9,40400
FR137,Mars sur Allier,3.05,46.8667,770
FR138,Vallée de la Loire : La Charité-sur-Loi,2.9667,47.2333,1400
FR139,Forêt de Jugny,4.75,47.5667,6800
FR140,Forêt de Citeaux et environs,5.1,47.0667,13100
FR141,Forêt de Châtillon et environs,4.7333,47.7667,21900
FR142,Arrière Côte de Dijon et de Beaune,4.8,47.1333,63600
FR143,Etang des Landes,2.3,46.1667,1800
FR144,Plateaux de Millevaches et de Gentioux,2.5,45.7,64900
FR145,Gorges de la Dordogne,2.4,45.3667,45700
FR146,Val d'Allier Bourbonnais,3.4,46.4667,17900
FR147,Haut Val d'Allier,3.5667,45.0167,52700
FR148,Gorges de la Sioule,2.85,46.0167,25250
FR149,Monts et Plomb du Cantal,2.7333,45.0833,6450
FR150,Planèze de Saint-Flour,2.9833,45.05,24150
FR151,Montagne de la Serre,3.0667,45.6667,2600
FR152,Sologne Bourbonnaise,3.6,46.6,22000
FR153,Vallée de la Loire: Pit majeur d'Iguera,3.7833,46.5,29800
FR154,Vallée de la Loire : gorges de la Loire,4.5667,45.2667,63000
FR155,Gorges de la Truyère,2.9,44.9,21500
FR156,Les Couzes Nord,3.0333,45.5333,19500
FR157,Les Couzes Sud,3.1333,45.4,16400
FR158,Val d'Allier : Saint-Yorre-Joze,3.3,45.85,5500
FR159,La Dombes,5.0167,46.0333,79800
FR160,Val de Saône,4.9,46.3667,12250
FR161,Forêt de Saou,5.1333,44.65,5050
FR162,Val de Drôme: Les Ramières-printegarde,4.8667,44.7667,2100
FR164,Basse Ardêche,4.4667,44.4167,46000
FR165,Hauts Plateaux du Vercors et Forêt des,5.5,45.2167,52800
FR166,Iles du Haut-Rhône,5.6,45.6667,3400
FR167,Plaine du Forez,4.1667,45.7333,80850
FR168,Ile de la Platière,4.7667,45.35,470
FR170,Lac Léman (partie française),6.5167,46.3667,24300
FR171,Lac et marais du Bourget,5.7667,45.8,9350
FR172,Haute chaîne du Jura: défilé de l'éclus,5.9833,46.2333,12400
FR173,Montagne des Frêtes et plateau des Gliè,6.3,45.9667,8200
FR174,Les Bauges,6.2167,45.6667,17750
FR175,Haut Giffre,6.8,46.0667,20850
FR176,Bassin d'Arcachon et Banc d'Arguin,-1.1167,44.6667,20100
FR177,Pointe de Grave,-1.0833,45.5333,800
FR179,Barthes de l'Adour,-0.3,43.6,16100
FR180,Rochers de Biarritz : le Bouccalot et l,-1.5667,43.5,250
FR181,Haute Soule : Massif Forestier,-0.9333,42.9667,2400
FR182,Haute Soule : Forêt des Arbailles,-1,43.1333,6850
FR185,Hautes Vallées d'Aspe et d'Ossau,-0.4667,42.9,37650
FR186,Eth Turoun des Aureys,-0.6333,43.0667,2100
FR187,Pènes du Moulle de Jaut,-0.35,43.0333,4300
FR189,Pic de l'Estibet et Mondragon,-0.2333,43.0667,4550
FR190,Barrage d'Artix et Saligue du Gave de P,-0.5333,43.3667,3200
FR191,Col de Lizarrieta,-1.6,43.2667,1500
FR192,Vallée de la Nive des Aldudes-Col de Li,-1.3833,43.1667,14500
FR195,Estuaire de la Bidassoa et Baie de Font,-1.7,43.4,9300
FR196,Réserve Naturelle du courant d'Huchet,-1.35,43.8667,820
FR197,Arjuzanx,-0.8667,44.0167,2430
FR198,Estuaire de la Gironde : marais du Nord,-1,45.4333,22250
FR201,Côte Médocaine: dunes boisées et dépres,-1.1333,45.0333,3900
FR203,Cirque de Gavarnie,0.0667,42.7333,7600
FR205,Zones rupestres du Tarasconnais et mass,1.6833,42.7333,23300
FR206,Vallée de la Garonne : Boussens à Carbo,1.1,43.2333,2300
FR207,Vallée de la Garonne : Palayre et envir,1.4,43.5667,1700
FR208,Vallée de la Garonne : Moissac,1.0667,44.0667,1300
FR209,Vallée de la Garonne : méandre de Griso,1.2833,43.7833,1050
FR210,Gorges de la Frau et Belestat,1.9167,42.8333,14000
FR212,Gorges de la Dourbie et causses avoisin,2.1833,44.0833,23000
FR213,Montagne de la Clape,3.1333,43.1667,10400
FR214,Etangs de Leucate et Lapalme,3,42.8833,13650
FR215,Etangs Narbonnais,3.05,43.0833,10600
FR216,Etang de Capestang,3.0667,43.3,1360
FR217,Hautes Corbières,2.6,43.0167,74750
FR218,Basses Corbières,2.7167,42.8833,47400
FR219,Gorges de la Vis & cirque de Navacelles,3.5667,43.8667,24400
FR220,Etangs Montpellierains,3.9667,43.5333,12700
FR221,Massif des Albères,3.0333,42.4833,17850
FR222,Massif du Canigou-Carança,2.35,42.5,53550
FR223,Puig Carlit et environs,1.9167,42.5,33850
FR224,Gorges du Gardon,4.4,43.9167,19500
FR225,Hautes garrigues du Montpellierais,3.8,43.8333,90700
FR226,Etang du Bagnas,3.5167,43.3167,561
FR227,Cordon lagunaire de Sète à Agde,3.6,43.3667,800
FR228,Etang de Thau,3.6167,43.4,1000
FR229,Etangs de Vendres,3.2,43.2667,4850
FR230,Minervois,2.7667,43.3667,19000
FR231,Etangs de Canet et de Villeneuve-de-la-,2.9667,43.0333,2500
FR233,Massif du Madres et Mont Coronat,2.3,42.6333,19300
FR234,Petite Camargue fluvio-lacustre,4.3,43.6333,19300
FR235,Petite Camargue laguno-marine,4.2667,43.5167,21000
FR236,Parc National des Cévennes,3.6667,44.25,92000
FR237,Montagnes de Marcou,2.9833,43.65,14500
FR238,Moyenne Vallée de la Durance,5.85,43.9,11300
FR239,Camargue,4.6,43.5167,76500
FR240,Crau,4.8667,43.6,40100
FR241,Chaîne des Alpilles,4.9,43.7333,21800
FR242,Salines de l'Etang de Berre,5.15,43.4667,530
FR243,Montagne Sainte-Victoire,5.6333,43.5667,15000
FR244,Iles Marseillaises: Maire,5.35,43.2333,2350
FR245,Marais entre Crau et Grand Rhône: Meyra,4.8,43.4833,5650
FR246,Massif du Petit Lubéron,5.2667,43.8,14000
FR247,Salins d'Hyères et de Pesquiers,6.1833,43.1,1000
FR248,Iles d'Hyères,6.3333,43.0167,6600
FR249,Plateau de Valensole,6.05,43.8333,22500
FR250,Plateau de l'Arbois,5.2,43.5667,34500
FR251,Plaine des Maures,6.4,43.3667,7500
FR252,Etangs de Citis,4.9667,43.4667,1250
FR253,Marais de L'Ile Vieille,4.6833,44.2333,1100
FR255,Vallée de la Durance : de Tallard à Sis,6,44.3667,1650
FR259,Bois du Chapitre,6,44.5167,250
FR262,Basse vallée du Var,7.2,43.7667,1100
FR263,Préalpes de Grasse,7.0667,43.7667,8500
FR264,Parc National des Ecrins,6.2667,44.6333,120000
FR265,Bois de Palayson,6.6333,43.5333,14150
FR266,Détroit de Bonifaccio et Iles Lavezzi,9.2333,41.3667,16600
FR267,Iles Cerbicale,9.35,41.55,5040
FR268,Golfe de Porto,8.6167,42.3333,28700
FR269,Forêts domaniales de Corse,9,42.1167,50217
FR272,Etang de Biguglia,9.4667,42.6,1980
FR274,Etang d'Urbino et zones humides périphé,9.4667,42.05,5200
FR275,Iles Sanguinaires,8.6,41.8667,175
FR276,Iles Finocchiarola & côte de Tamarone à,9.4,43,1140
GE004,Kolkheti,41.8333,42.1667,56052
GE005,Kintrishi,41.8167,41.75,15726
GE014,Batumi,41.6333,41.6333,41938
GL043,Liverpool Land coast and mouth of Score,-21.666,71,150000
GL044,Heden,-24.116,71,252400
GR001,Northern Evros and Ardas riparian fores,26.5,41.5,20000
GR002,Asvestades-Vrisika area,26.3333,41.3333,9500
GR004,Protected area of Dadia-Lefkimi-Soufli,26.3,41.1833,42370
GR005,South forest complex of Evros prefectur,25.9167,40.9667,71800
GR008,Filiouri river valley and east Rodopi m,25.75,41.1667,77000
GR009,Kompsatos valley,25.1167,41.1667,16000
GR010,Lake Mitrikou (Ismarida),25.2833,40.9667,6500
GR011,Porto Lagos,25.0833,41.0167,15300
GR012,Nestou delta and coastal lagoons,24.8,40.9667,22000
GR013,Nestos gorge,24.7167,41.1333,14500
GR015,Mount Falakro,24.0833,41.2833,20000
GR017,Mount Pangaio,24.1167,40.9167,20000
GR019,Mount Kouskouras,23.6,41.2,27543
GR020,Lake Kerkini,23.15,41.2,12000
GR025,River Axios,22.6333,40.7833,12400
GR028,Axios,22.7167,40.5,20000
GR029,Gallikos estuary and Kalohori lagoon,22.85,40.6333,1800
GR032,Lakes Volvi-Langada (or Koronia-Ag. Vas,23.3667,40.6833,43000
GR034,Agios Mamas marsh,23.3333,40.2333,633
GR039,Mountain Voras (Kaimaktchalan),21.9167,40.9667,52286
GR042,Aliakmon gorge,22.1667,40.45,4400
GR043,Alyki Kitros lagoon,22.6333,40.3667,1500
GR044,Mount Olympos,22.4167,40.1333,42000
GR045,Lake Vegoritis and Lake Petron,21.75,40.75,17000
GR046,Lake Chimaditis and Lake Zazaris,21.55,40.6167,5390
GR047,Lake Mikri Prespa and Lake Megali Presp,21.05,40.75,33000
GR048,Lake Kastoria (Orestiada),21.3,40.5167,3400
GR050,Mounts Orliakas and Tsourgiakas,21.2167,40.0333,10500
GR052,Kerketion mountain (Koziakas),21.5333,39.5833,23000
GR053,Antikhassia mountains and Meteora,21.5833,39.75,65000
GR054,Kalamaki gorge-Mount Zarkou,22.1833,39.6333,8650
GR056,Tyrnavos area,22.3333,39.7167,8500
GR058,Mounts Kato Olympos and Ossa,22.5,39.9,69000
GR060,Mavrovouni mountain,22.8167,39.5833,17000
GR062,Thessaly plain,22.4167,39.4667,180000
GR064,Mount Parnitha,23.0333,39.45,31751
GR067,Central part of Zagori and Mount Mitsik,20.9,39.8,46500
GR074,Kalamas estuary,20.1833,39.5333,8531
GR075,Kalamas gorge,20.35,39.5833,4000
GR077,Acheron delta and gorge,20.5,39.25,6000
GR078,Lake Kalodiki,20.45,39.3333,1650
GR081,Amvrakikos gulf,21,39,25000
GR083,Lagoons of Kerkyra,19.9167,39.45,1100
GR084,Echinades islands,20.9333,38.5,4700
GR085,The Agia Dinati and Kokkini Rachi mount,20.55,38.2333,20000
GR086,West and north Zakynthos,20.6833,37.7667,13600
GR091,Lakes Trichonida and Lysimachia,21.4667,38.5667,14279
GR092,Mesolongi and Aetoliko lagoons,21.3333,38.3333,50000
GR093,Alyki lagoon,22.1,38.25,32
GR097,Mount Erimanthos,21.85,37.95,36900
GR098,Kalogria lagoon,21.3667,38.1667,6000
GR099,Kotychi lagoon,21.3,38,2700
GR102,Mount Othrys,22.6667,39.0667,84000
GR103,Sperchios valley and delta-Maliakos gul,22.5333,38.85,34000
GR109,Megalo and Mikro Livari lagoons Istieas,23.1333,39,1008
GR110,Kandili mountain,23.4667,38.6833,5700
GR119,Divari Pilou lagoon (Gialova),21.6667,36.9667,600
GR120,Mount Taigetos,22.3167,36.9667,70000
GR124,Mount Parnitha,23.7167,38.1667,19400
GR126,Mount Ymittos,23.8,37.9333,8000
GR127,Sounio area,24,37.6833,7000
GR134,South-west peninsula-petrified forest,26,39.1667,34000
GR143,Ikaria island,26.1667,37.6,26700
GR149,Northern Syros,24.9333,37.4833,4000
GR152,Western Milos,24.3667,36.7,11000
GR194,Mount Zakrou,26.1667,35.1167,13000
HR001,Alluvial wetlands of the River Danube,18.8333,45.6667,37111
HR004,Nasicka Breznica fish-ponds,18.2167,45.5833,1345
HR005,Alluvial forests from Podravska Slatina,18.1667,45.6667,41384
HR008,Jelas field,17.75,45.0833,10000
HR009,Alluvial wetlands of the River Sava,17,45.5,210000
HR011,Alluvial wetlands of the River Drava,17.25,45.9167,68002
HR012,Turopolje,16.25,45.5667,20000
HR013,Pokupsko depression,15.7,45.6167,10000
HR015,Prvic island,14.8,44.9167,7000
HR017,Paklenica National Park,15.75,44.3167,3617
HR018,Kornati National Park and Telascica Nat,15.3,43.75,30200
HR019,Lake Vransko,15.5833,43.9,3000
HR020,Krka National Park,15.9167,43.8,14200
HR021,Sinjsko field,16.4167,43.9167,640
HR023,Delta of the Neretva river,17.55,42.95,11500
HU001,Moson Plain,17.2,47.85,7419
HU002,Hanság,17.25,47.75,10718
HU003,Lake FertÅ,16.6333,47.6,8500
HU004,Lake Kis-Balaton,17.2166,46.6666,12072
HU005,Lake Balaton,17.9,46.9166,59985
HU006,Nagy-berek of Fonyód,17.55,46.7333,9324
HU007,Inner Somogy,17.3,46.2166,35627
HU009,Béda-Karapancsa,18.7666,45.9333,9579
HU010,Gemenc,18.75,46.1166,17839
HU011,Sárvíz Valley,18.55,47,5313
HU012,Velence Lake-Dinnyés Lake,18.5166,47.1666,1971
HU014,Öreg Lake of Tata,18.3,47.65,3987
HU015,Gerecse,18.5,47.7166,52500
HU018,Börzsöny,18.9166,47.9166,27839
HU019,Ipoly Valley,19.0833,48.0833,6300
HU021,Pusztas around JászkarajenÅ,20.0666,47.0666,8066
HU022,Alkaline pusztas of Upper Kiskunság,19.25,46.8166,44339
HU026,Lower Tisza Valley,20.1666,46.25,29483
HU027,Csanád Pusztas,20.7166,46.3166,9219
HU028,HódmezÅvásárhely Pusztas,20.4666,46.5,10123
HU029,Ecseg Pusztas of Dévaványa,21.15,47.1666,28697
HU030,Kis-Sárrét,21.5666,46.9666,12326
HU031,Bihar Plain,21.4333,47.1,50887
HU032,Hortobágy,21.0666,47.6166,150072
HU034,Upper Tisza,21.75,48.25,9456
HU035,Szatmár-Bereg,22.6666,48,52755
HU036,Heves Plain,20.45,47.6166,63959
HU038,Kesznyéten,21.05,48.0166,6009
HU039,Bodrogzug-Taktaköz,21.3333,48.25,31853
HU040,Mátra,20,47.8166,58122
HU041,Bükk,20.5,48.1666,62873
HU042,Zemplén Mountains,21.4166,48.5,94223
HU043,Aggtelek Karst,20.55,48.4833,23602
IE004,Lough Foyle,-7.0833,55.1667,21803
IE005,Lough Swilly including Blanket Nook and,-7.5333,55.1167,9000
IE006,River Foyle: Carrigans and Swilly Burn,-7.45,54.9167,2300
IE007,Fanad Head peninsula,-7.6667,55.2167,8600
IE009,Lough Fern,-7.7167,55.05,185
IE010,Horn Head cliffs,-7.9667,55.2167,176
IE011,Dunfanaghy New Lake,-8,55.1667,626
IE027,Moors west and north-west of Lough Derg,-7.95,54.6167,691
IE028,Lough Derg,-7.8833,54.6167,888
IE030,Donegal Bay,-8.25,54.5833,40000
IE032,Ardboline Island and Horse Island,-8.7,54.35,25
IE033,Drumcliff Bay and Ballintemple,-8.55,54.3333,3000
IE035,Ballysadare Bay,-8.5833,54.2167,2146
IE036,Lough Gara,-8.45,53.95,1788
IE037,Aughris Head,-8.75,54.2667,18
IE038,Killala Bay,-9.15,54.2167,4294
IE041,Broadhaven,-9.8667,54.25,10852
IE045,Carrowmore Lake,-9.8,54.1833,967
IE046,Owenduff River catchment and Nephin Beg,-9.6333,54.0333,25622
IE048,Clare Island cliffs,-10.066,53.8,800
IE050,Cross Lough (Killadoon),-9.9167,53.7,1
IE054,Connemara Islands,-10.15,53.5,20000
IE055,Roundstone bog,-9.7833,53.3833,7000
IE057,Inner Galway Bay,-9.05,53.2,11905
IE058,Rahasane turlough,-8.7833,53.2167,257
IE059,Lough Rea,-8.5,53.1833,200
IE060,Coole Park and Garryland complex,-8.8667,53.0833,389
IE062,Lough Cutra,-8.7667,53.0167,390
IE064,Ballyallia lake,-8.9833,52.8833,308
IE068,Shannon and Fergus estuary,-9.0667,52.6667,16718
IE069,Tralee Bay and Barrow Harbour,-9.8,52.2667,3290
IE070,Magharee Islands,-10.033,52.3333,370
IE074,Castlemaine Harbour,-9.9167,52.1167,11374
IE078,Eirk bog,-9.6667,51.95,13
IE079,Killarney National Park,-9.5833,52,10329
IE081,Beara peninsula,-10.066,51.6167,3250
IE083,Inner Clonakilty Bay,-8.8667,51.6167,588
IE084,The Gearagh and the Iniscarra reservoir,-8.9667,51.8833,323
IE085,Kilcolman bog,-8.5833,52.25,63
IE086,Old Head of Kinsale,-8.5333,51.6333,15
IE088,Cork Harbour,-8.2833,51.8333,5950
IE089,Ballycotton,-8.0333,51.8167,200
IE090,Ballymacoda,-7.9,51.9,602
IE091,Blackwater estuary,-7.8333,51.9667,500
IE092,River Blackwater callows,-8.05,52.15,1053
IE093,Helvick Head,-7.55,52.05,78
IE094,Dungarvan Harbour,-7.5667,52.0667,1300
IE095,Tramore Backstrand,-7.1,52.1667,1557
IE096,Bannow Bay,-6.8,52.2167,958
IE097,Keeragh Islands,-6.7333,52.2,22
IE098,The Cull/Killag,-6.65,52.2,896
IE099,Saltee Islands,-6.6,52.1167,126
IE100,Tacumshin lake,-6.4833,52.1833,528
IE101,Lady's Island Lake,-6.4,52.1833,466
IE102,Wexford Harbour and Slobs,-6.4333,52.3167,5000
IE103,Cahore marshes,-6.25,52.5,450
IE104,Wicklow Head,-6,52.9667,134
IE105,North Wicklow coastal marshes,-6.05,53.0667,670
IE106,Wicklow Mountains,-6.4,53.1667,30000
IE108,Upper Barrow flood-plain,-7.05,53.0833,1000
IE109,Dublin Bay,-6.2,53.35,3000
IE110,Howth Head,-6.05,53.3667,102
IE111,Ireland's Eye,-6.0667,53.4,90
IE113,Malahide/Broadmeadow estuary,-6.15,53.45,606
IE114,Lambay Island,-6.0167,53.4833,612
IE116,Skerries Islands,-6.0833,53.5667,62
IE117,Rockabill,-6.0167,53.6,1
IE118,Nanny estuary and shoreline,-6.2167,53.6667,150
IE119,Boyne estuary,-6.25,53.7167,404
IE120,Stabannan-Braganstown,-6.4333,53.8667,491
IE122,Carlingford Lough,-6.2,54.0667,4660
IE123,Lough Oughter,-7.4667,54,1464
IE124,Lough Kinale and Lough Derragh,-7.4,53.7667,281
IE125,Loughs Kilglass and Forbes,-7.8833,53.7667,1352
IE126,Lough Arrow,-8.3167,54.0667,1266
IE127,Bellanagare bog,-8.4167,53.8167,1243
IE128,Lough Ree,-7.95,53.5333,10788
IE129,River Suck callows: Shannon Bridge-Cast,-8.1667,53.4,4000
IE130,Lough Derg,-8.3167,52.9833,11989
IE131,River Shannon callows: Portumna-Athlone,-8.0667,53.25,5788
IE132,River Little Brosna callows: New Bridge,-8.05,53.1333,1154
IE133,All Saints bog,-7.9333,53.1167,326
IE135,Lough Iron-Glen Lough,-7.4833,53.6167,263
IE137,Lough Sheelin,-7.3333,53.8,1885
IE138,Lough Derravaragh,-7.3333,53.65,1120
IE139,Lough Owel,-7.4,53.5667,1032
IE140,Lough Ennell,-7.4,53.4667,1404
IS004,Ædey,-22.666,66.1,1100
IS006,Breidafjördur,-23,65.3167,300000
IS007,Álftafjördur-Hofsstadavogur,-22.666,65,3000
IS008,Löngufjörur,-22.5,64.75,17000
IS009,Ferjubakkaflói-Nordurá,-21.666,64.6,1500
IS010,Álftanes-Akrar,-22.25,64.5167,13300
IS011,Borgarfjördur,-22,64.5,7000
IS012,Innstavogsnes-Grunnafjördur,-21.916,64.3667,1900
IS014,Skerjafjördur,-22,64.0667,3300
IS019,Ósasvædi Ölfusár,-21.25,63.95,7400
IS020,Stokkseyri-Eyrarbakki,-21.116,63.8667,4300
IS022,Apavatn-Laugarvatn,-20.566,64.1667,4900
IS024,Pollengi-Hrosshagavík,-20.416,64.1667,1400
IS025,Vetleifsholtsbugar-Thykkvabæjarvatn,-20.566,63.7667,5600
IS026,Oddaflód-Lambhagavatn,-20.45,63.7667,1500
IS029,Markarfljótsaurar,-20.033,63.6,10500
IS030,Brunasandur,-17.8,63.8,14000
IS031,Skeidarársandur,-17.183,63.8833,33100
IS032,Breidamerkursandur,-16.316,64,6900
IS039,Skrúdur,-13.616,64.9,92
IS040,Úthérad,-14.316,65.5,36200
IS041,Skoruvík-Skálabjarg,-14.766,66.3667,5300
IS042,Melrakkaslétta,-16.25,66.4833,24600
IS043,Öxarfjördur,-16.75,66.1167,2500
IS044,Mývatn-Laxá,-17,65.6,10200
IS046,Grímsey,-18,66.55,2300
IS048,Hólmarnir,-18.066,65.65,700
IS049,Hörgárósar,-18.2,65.8,540
IS050,Hrísey,-18.383,66,767
IS052,Austara Eylendid,-19.45,65.75,3300
IS054,Drangey,-19.666,65.95,1500
IS055,Hóp-Vatnsdalur,-20.316,65.5167,12000
IS056,Arnarvatnsheidi-Tvídægra,-20.5,65,60000
IS057,Eyjavatn-Fridmundarvötn,-19.7,65.25,7500
IT003,Anzasca and Antrona valleys,8.1,46,42600
IT004,Antigorio and Formazza valleys,8.3,46.2667,50000
IT005,Val Grande,8.4333,46.05,29000
IT006,Mount Tabor,9.15,46.0667,28000
IT007,Pian di Spagna and Lake Mezzola,9.45,46.2167,3400
IT008,Gran Paradiso,7.2667,45.55,110000
IT009,Lake Maggiore,8.6667,45.9167,21600
IT010,Campo dei Fiori,8.7667,45.9167,24500
IT011,Grigne,9.3667,45.95,14038
IT012,Orobie,9.8333,46.05,107000
IT014,Brabbia peatland and Lake Varese,8.75,45.7833,2437
IT015,Lake Garda,10,45.8333,38000
IT016,Lake Viverone,8.05,45.3833,930
IT017,Novara heronries,8.55,45.5,50
IT018,Ticino river,8.85,45.55,25000
IT019,Iseo peatlands,10.0333,45.6333,325
IT020,River Sesia heronries,8.3833,45.4,500
IT021,Lake Candia,7.9667,45.3,295
IT022,Heronries of Pavia province,9.1667,45.3,32292
IT023,Adda Sud Park heronries,9.65,45.2667,1000
IT025,Vercelli rice-fields,8.2667,45.2,15000
IT026,Trebbia river (lower course),9.6167,45.0333,30
IT027,River Po from Dora Baltea mouth to Scri,8.3333,45.1167,14000
IT028,River Po: from Ticino mouth to Adda mou,10,45,25000
IT029,Marengo heronry,8.65,44.8167,30
IT031,Taro river,10.2167,44.8167,6000
IT032,Torrile LIPU reserve,10.3333,44.9333,200
IT033,Scrivia stream,8.85,44.75,3000
IT034,Crava-Morozzo lakes,7.8333,44.4333,300
IT035,Maritime Alps,7.1667,44.3,95400
IT036,Mount Beigua,8.6667,44.4167,10000
IT037,Finalese,8.3333,44.25,3750
IT039,Alpi Apuane,10.2333,44.1,16800
IT041,Stelvio National Park,10.5333,46.5,134621
IT042,Dolomites,12.0833,46.6667,48507
IT045,Adamello-Brenta,10.7667,46.1333,112800
IT046,Lagorai mountains,11.6,46.1833,40000
IT047,Carniche pre-Alps,12.55,46.2667,63000
IT048,Middle course of Tagliamento river,13.0167,46.2167,3579
IT049,Cividalese and upper Torre valley,13.4333,46.1667,28400
IT050,Belluno Dolomites,12.0333,46.1667,31512
IT052,Giulie Pre-Alps,12.7167,46.0333,39400
IT054,Mount Grappa,11.8,45.8833,40000
IT055,Piave river,12.1333,45.8333,10000
IT057,Lessini mountains,11.1667,45.7333,39000
IT058,Alto Garda Bresciano,10.4667,45.65,38269
IT059,Middle course of River Brenta,11.7,45.6667,1100
IT060,Quinto heronry,12.25,45.6667,50
IT061,Caorle lagoon,12.9167,45.65,2200
IT062,Grado and Marano lagoon,13.3167,45.75,32815
IT063,Isonzo mouth,13.5667,45.75,5000
IT064,Venice lagoon,12.4667,45.3667,68982
IT065,River Mincio and Bosco Fontana,10.75,45.1833,3581
IT066,Carso,13.7667,45.7333,18950
IT067,Boscone island,11.25,45.0333,292
IT068,River Po: from the mouth of Adda river,10.6,45,30000
IT069,Codigoro heronry,12.2333,44.9333,60
IT070,Po Delta,12.2667,44.9333,17000
IT071,Valle Bertuzzi and Goro lagoon,12.25,44.7833,7081
IT072,Valli di Comacchio and Bonifica del Mez,12.1667,44.6167,44013
IT073,Valli di Argenta,11.8333,44.5667,2000
IT074,Punte Alberete and Valle della Canna,12.25,44.5,4152
IT075,Ortazzo and Ortazzino,12.3167,44.3667,620
IT076,Cervia saltpans,12.35,44.25,989
IT077,Lake Massaciuccoli,10.3333,43.85,3795
IT078,Foreste Casentinesi,11.7,43.8667,36300
IT079,Calvana mountains,11.1667,43.9167,3900
IT080,Fucecchio marsh,10.7833,43.7667,2500
IT081,Arezzo heathlands,11.75,43.4167,4394
IT082,Migliarino-San Rossore,10.2667,43.7667,7000
IT083,Pools of Florence plain,11.0667,43.8,1000
IT085,Mount Conero,12.75,43.5333,1140
IT087,Sentina,13.6667,43.4833,180
IT088,River Cecina,10.8667,43.3333,2400
IT089,Bolgheri,10.55,43.2333,562
IT090,Crete Senesi,11.3667,43.2,50000
IT091,Lake Trasimeno,12.0833,43.15,13200
IT092,Farma valley,11.0667,43.0667,10000
IT093,Lakes Montepulciano and Chiusi,11.9667,43.0667,2136
IT094,Colfiorito,12.8667,43.0167,500
IT095,Sibillini mountains,13.1667,42.9333,71374
IT096,Tuscan Archipelago,10.3333,42.8,76608
IT097,Diaccia Botrona,10.9167,42.7833,2964
IT098,Uccellina mountains,11,42.6333,6000
IT099,Lake Bolsena,11.9167,42.5833,16000
IT100,Lake Alviano,12.25,42.5667,900
IT102,Selva del Lamone,11.5667,42.5,2200
IT105,Rieti lakes,12.8333,42.4833,3278
IT108,Vico lake,12.1667,42.3333,4000
IT109,Cicolano,13.1833,42.3333,49485
IT110,Lake Bracciano and surrounding areas,12.2,42.1667,31300
IT111,Tolfa hills,12.0667,42.1333,75000
IT112,Tarquinia saltpans,11.75,42.2,170
IT115,Maiella,14.2,42.1667,177500
IT116,Coast from Palo to Santa Marinella,12,42,6300
IT117,Litorale Romano,12.2,41.85,19529
IT118,Ernici and Simbruini mountains,13.3167,41.8833,70000
IT119,Abruzzo National Park,13.85,41.75,110000
IT120,Lepini mountains,13.0833,41.6,49600
IT121,Circeo National Park,13.0333,41.2667,8350
IT122,Ponziane islands,12.9833,40.9,1130
IT123,Ausoni and Aurunci mountains,13.5,41.3667,137200
IT124,Matese,14.4167,41.45,41718
IT126,Daunia mountains,15.1,41.6667,50000
IT131,Capri island,14.25,40.55,1036
IT132,Serre Persano,15.0833,40.5,300
IT133,Picentini mountains,15,40.5,64000
IT134,Alburni mountains,15.3167,40.5833,16000
IT135,Murge,16.4,40.8833,90000
IT136,Mount Cervati,15.4333,40.2833,44000
IT138,Manferrara forest,16.5,40.5333,500
IT139,Gravine,17,40.5833,30000
IT140,Coast between Marina di Camerota and Po,15.3,40,5700
IT142,Mounts Orsomarso and Verbicaro,15.95,39.8333,48000
IT143,Pollino,16.2,39.8833,115814
IT145,Sant'Andrea island,17.9833,40.05,262
IT146,Le Cesine,18.3333,40.35,620
IT147,Cape Otranto,18.5833,40.1333,3100
IT148,Sila Grande,16.5333,39.35,28450
IT149,Marchesato and River Neto,16.95,39.2167,44125
IT150,Costa Viola,15.75,38.2167,19750
IT151,Aspromonte,16,38.1167,35650
IT153,Peloritani mountains,15.5167,38.2167,17100
IT155,Mount Pecoraro and Pizzo Cirina,13.1167,38.15,12000
IT156,Mount Cofano,12.7833,38.05,18000
IT157,Egadi islands,12.3333,37.9833,47024
IT158,Stagnone di Marsala and Trapani saltpan,12.5,37.7833,4454
IT159,Rocca Busambra,13.45,37.8833,100000
IT162,Cape Feto,12.5167,37.6667,150
IT163,Simeto mouth and Biviere di Lentini,15.1,37.4,3398
IT164,Madonie,14,37.8333,39941
IT165,Anapo gorges,14.9833,37.1167,3712
IT166,Biviere and Plain of Gela,14.3333,37.0167,28052
IT167,Pantani di Capo Passero,15.05,36.7333,2963
IT168,Pantelleria and Isole Pelagie,12,36.75,31177
IT170,Maddalena archipelago,9.3667,41.2667,59534
IT171,Asinara island and Stintino peninsula c,8.2,41.0167,16628
IT172,Pilo and Casaraccio pools,8.2833,40.85,500
IT173,Campo d'Ozieri,8.8333,40.75,20000
IT174,Tavolara island,9.65,41,24172
IT175,Cape Caccia,8.1833,40.5667,8439
IT176,Coast between Bosa and Alghero,8.45,40.35,20000
IT177,Altopiano di Campeda,8.7833,40.3,19500
IT178,Central Campidano,8.6333,39.6667,20000
IT179,Altopiano di Abbasanta and Lake Omodeo,8.8333,40.1667,20000
IT181,Orosei Gulf and Gennargentu mountains,9.4,40.1667,59102
IT183,Mount Ferru of Tertenia,9.6167,39.75,1000
IT185,Flumendosa and Colostrai pools,9.5833,39.35,625
IT186,Mount Sette Fratelli and Sarrabus,9.45,39.2833,50000
IT188,Cagliari wetlands,9.15,39.1833,7526
IT192,Coast between Cape Teulada and Pula,8.8167,38.8333,5927
IT193,Argentario,11.3167,42.4,12164
IT203,Gargano Promontory and Capitanata Wetla,15.9167,41.4167,207378
IT204,Gran Sasso and Laga mountains,13.4333,42.6667,60000
IT205,Oristano wetlands and Cape San Marco,8.4833,39.8667,22595
LI001,Ruggeller Riet,9.55,47.2667,90
LI002,Garselli-Zigerberg,9.6,47.1667,950
LT001,Seashore at Palanga,20.8666,55.95,113000
LT002,Seashore at Nida,20.85,55.6333,77000
LT003,Kuronian lagoon,21.1667,55.4167,9720
LT004,Kuronian spit,21.1167,55.5,26394
LT005,Tyras,21.2333,55.5666,2540
LT006,Nemunas delta,21.25,55.3,26625
LT007,Zemaitija National Park,21.8833,56.05,21200
LT008,Varduva River and Varduva Reservoir,22.1333,56.3667,1040
LT009,Minija River and Lower Babrungas,21.3833,55.6833,3000
LT010,Birzulius and Stervas lakes and adjacen,22.4167,55.7666,5020
LT011,Kamanos,22.6333,56.2833,3935
LT012,Pavezupis fish-ponds,22.9,55.75,1000
LT013,Tyruliai,23.3,55.7666,3688
LT014,Jura river,22.25,55.2166,1000
LT015,Viesvile,22.4333,55.15,3216
LT016,Birzai forest,24.9333,56.2833,14000
LT017,Krekenava forests,24.2,55.5333,8680
LT019,Sartai Regional Park and Rokiskis Fishp,25.8333,55.8,13500
LT020,Vasaknos fish-ponds,25.8,55.7,800
LT021,Labunava forest,23.9833,55.15,3000
LT022,Sesuva river,24.3333,54.9166,250
LT023,Kauno Marios Reservoir and adjacent are,24.1333,54.85,7800
LT024,Islauzas fish-ponds,23.9166,54.7333,600
LT025,Lake Kasonys and adjacent wetlands,24.1833,54.65,100
LT026,Verkne river,24.4,54.55,690
LT027,Novaraistis,23.4166,54.95,827
LT028,Sirvinta river,22.9666,54.5666,500
LT029,Zaltytis,23.4333,54.4,392
LT030,Zuvintas,23.6,54.4667,5442
LT031,Meteliai Regional Park,23.7666,54.3,4500
LT032,Aukstaitija National Park,26.0333,55.3666,30000
LT033,Kretuonas,26.1,55.25,2000
LT034,Dzukija forest,24.35,54.0833,49000
LT036,Senoji and Naujoji Rusne lakes,21.7666,55.1333,1180
LT037,Plinksiai,22.1833,56.1166,5000
LT038,Musos tyrelis,23.2166,55.35,1615
LT039,Sulinkiai peatland,23.4333,55.7333,600
LT040,Pravirsulis,23.4666,55.5333,3292
LT041,Zalioji forest,24.5166,55.85,16000
LT042,Simonys and Ramuldavos forests,25.1666,55.65,20000
LT044,Lake Druksiai,26.6333,55.6,4700
LT046,Girutiskis,25.85,55.2,1500
LT047,Dotnuva forest,23.7833,55.3166,5000
LT048,Lanciunava forest,24.2,55.35,4400
LT050,Sesuoliai forest,24.9166,55.1333,4500
LT051,Punia forest,24.05,54.5333,2700
LT053,Rudninkai forest,25.1,54.3833,5800
LT054,Buda and Pravieniskes forests,24.25,54.9166,7600
LT055,Baldieriskis forest,23.8,54.5333,3500
LT056,Silale Fishponds,22.2666,55.5666,770
LU002,Our,6.1167,50.1333,1700
LU003,Pont Misere,5.8,49.85,3646
LU004,Weisse Ernz,6.2167,49.75,60
LU005,Syre,6.3,49.6667,90
LU007,Weiler-la-tour,6.2,49.5333,80
LU008,Roeserbann,6.1333,49.5333,1067
LU009,Minières,6.0833,49.4833,3200
LV003,Dunika bog,21.4,56.2666,1807
LV004,Liepaja lake,21.05,56.45,4818
LV006,Durbe lake meadows,21.4,56.6333,596
LV007,Skrunda fish-ponds,21.9833,56.6833,496
LV008,Uzava meadows,21.5333,56.9333,688
LV010,Mangene forest,21.9833,57.0833,2391
LV012,Uzava lowland,21.5166,57.15,1434
LV015,Slitere and Zilie kalni,22.4,57.65,17323
LV016,Stikli,22.2666,57.3166,7244
LV018,Gulf of Riga,23.1833,57.2333,120000
LV022,Babite lake,23.7333,56.9166,3052
LV023,Satini fish-ponds,22.3166,56.6,3878
LV024,Zvarde forest,22.6,56.5,8169
LV025,Lake Lielauce,22.9,56.5333,885
LV026,Ukri forest,23.2,56.3833,1144
LV027,Lielupe flood-plain meadows,23.7166,56.6667,392
LV028,Svete lower reaches,23.65,56.7166,932
LV030,Cena bog,23.85,56.85,2488
LV032,Gauja national park,25.0666,57.3,92322
LV033,Lielais and Pemmas bogs,24.8167,57.3833,3474
LV035,Augstroze,25.0333,57.5333,4007
LV037,Ruja flood-plain,25.25,57.8667,444
LV039,Seda marsh,25.7667,57.7,7335
LV044,Daugava river at Kaibala,24.8833,56.6666,592
LV048,Abeli,25.9833,56.4,3292
LV050,Teici and Pelecare bogs,26.45,56.5833,26263
LV052,Lubans and fish-ponds,26.8666,56.7333,21338
LV053,Berzpils bogs and flood-plains,27,56.8666,14736
LV054,Pededze forest and Parabaine,26.9,56.95,14737
LV055,Sita and Pededze flood-plain,26.9833,57.1333,1193
LV056,Vecumi,27.8,57.25,7842
LV057,Orlovas bog,27.4,57,3300
LV060,Nida-Perkone,20.9666,56.2333,10000
LV061,Ziemupe-Riva coastal,21.05,56.8333,10100
LV062,Salacgriva-Vitrupe,24.3666,57.6833,4870
LV063,Tuja offshore,24.2333,57.3333,40000
LV064,Tasu lake,21.2166,56.6166,271
MD009,Copanca-Talmaz,29.7,46.65,6000
MK001,Sara mountains [parts of],21,42,12000
MT001,Ta'Cenc cliffs,14.2333,36.0333,2
MT002,Comino island,14.3333,36.0167,260
MT003,Rdum Tal-Madonna,14.3667,36,4
MT004,Buskett and Wied il-Luq,14.4,35.8667,30
NL001,Wadden Sea,5.3833,53.3,272100
NL002,Texel: Schorren and Zeeburg,4.9,53.1333,1600
NL003,Texel: Dunes and Hors,4.7833,53.1167,3850
NL004,Vlieland,4.9833,53.2833,2740
NL008,Ameland: Duinen-Oerd,5.75,53.4667,3150
NL009,Engelsmanplaat,6.05,53.45,720
NL010,Schiermonnikoog,6.25,53.5,2800
NL011,Rottumerplaat,6.5,53.5333,782
NL012,Rottumeroog,6.5833,53.55,311
NL013,Balgzand,4.7667,52.9167,6000
NL014,Frisian Wadden Sea coast,5.75,53.3333,9310
NL015,Lauwersmeer,6.2167,53.3667,7820
NL016,Groningen Wadden Sea coast,6.5667,53.4333,4600
NL017,Dollard,7.1333,53.2833,6400
NL018,North Sea north of the Wadden Sea,5,53.3333,187000
NL019,Zwanenwater,4.7,52.8167,600
NL020,Voordelta,3.5833,51.7167,107000
NL021,Westplaat,4.0333,51.9167,350
NL022,Voornes Duin,4.05,51.9,1500
NL023,Kwade Hoek,4,51.8333,430
NL024,Haringvliet,4.25,51.7667,10900
NL025,Hollands Diep,4.5,51.7,4300
NL026,Lake Volkerak,4.25,51.65,6450
NL027,Grevelingen,4,51.75,13900
NL028,Oosterschelde,3.9333,51.5833,36880
NL029,Zoommeer,4.2,51.5,1175
NL030,Markiezaat,4.2667,51.4667,2030
NL031,Lake Veersemeer,3.7333,51.5333,3010
NL032,Westerschelde and Saeftinghe,3.8333,51.3833,50800
NL033,Zwin (Dutch part),3.4167,51.3833,128
NL034,Lake IJsselmeer,5.45,52.75,109000
NL035,Makkumer-and Kooiwaard,5.3833,53.05,1740
NL036,Workumerwaard,5.4167,52.9833,1320
NL038,Lake Markermeer,5.25,52.5333,69700
NL039,Lake Ketelmeer,5.75,52.6,3900
NL040,Lake Zwartemeer,5.9667,52.6333,2180
NL041,Lake Drontermeer,5.85,52.5,640
NL042,Lake Veluwemeer,5.6667,52.3833,3390
NL043,Lake Wolderwijd,5.5833,52.35,2750
NL044,Lake Gooimeer,5.2,52.3167,2670
NL045,Lake Eemmeer,5.3167,52.2833,1340
NL048,Gelderse Poort,6.0333,51.8833,6460
NL049,Rijn: Heteren-Amerongen,5.6667,51.95,2480
NL050,Waal: Ewijk-Waardenburg,5.5333,51.9,5940
NL051,Biesbosch,4.8333,51.7667,9050
NL052,Lake Leekstermeer,6.4333,53.1833,1450
NL053,Lake Zuidlaardermeer and Onnerpolder,6.6833,53.1333,2100
NL054,Groote Wielen,5.8667,53.2167,600
NL055,Oude Venen,5.9167,53.1167,2500
NL056,De Deelen,5.9167,53.0333,1260
NL057,Van Oordt's Mersken,6.0833,53.05,670
NL058,Lake Sneekermeer and Goingarijp,5.7667,53.0167,1670
NL060,Lake Witte and Zwarte Brekken,5.6833,53,460
NL063,Rottige Meenthe and Brandemeer,5.9167,52.85,1920
NL064,De Weerribben,5.9167,52.7833,3470
NL065,De Wieden,6.05,52.7,9400
NL068,Eilandspolder,4.85,52.5667,2040
NL070,Wormer-and Jisperveld,4.8333,52.5167,1940
NL071,Ilperveld,4.9333,52.45,1960
NL072,Oostzanerveld,4.8667,52.45,750
NL073,Oostelijke Vechtplassen,5.0833,52.2167,7040
NL074,Naardermeer,5.1167,52.3,1120
NL075,Polder Arkemheen,5.4333,52.2333,1460
NL076,Nieuwkoopse Plassen,4.7833,52.15,2000
NL077,Reeuwijkse Plassen,4.7833,52.05,1650
NL078,Zouweboezem,5,51.95,140
NL079,Donkse Laagten,4.8,51.9,180
NL080,Banks of River Linge,5.0667,51.8667,610
NL082,Fochteloërveen and Lake Esmeer,6.4,53.0167,3830
NL083,Dwingelderveld,6.3833,52.8167,3800
NL084,Bargerveen,7.0333,52.6833,2200
NL085,Engbertsdijksvenen,6.6667,52.4833,1030
NL086,Mariapeel and Deurnesepeel,5.9,51.4167,2560
NL087,Groote Peel,5.8167,51.3333,1350
NL088,Strabrechtse Heide and Beuven,5.6333,51.3833,1630
NL089,De Wilck,4.55,52.1167,770
NL090,Zwarte Water and Overijsselse Vecht,6.0833,52.6167,1480
NL091,Oudeland van Strijen,4.5167,51.7667,1070
NL092,Dunes of Schoorl,4.6667,52.7,2500
NL093,Drents-Friese Wold,6.3333,52.9,7100
NL094,Veluwe,5.8333,52.1667,91800
NL095,Sallandse Heuvelrug,6.4167,52.3333,4100
NL096,Loonse and Drunense Duinen,5.1,51.65,4090
NL097,Regte Heide,5.0333,51.5167,410
NL098,Oirschotse Heide,5.35,51.4833,1190
NL099,De Hamert/Bergerbossen,6.1667,51.5167,4030
NL100,De Utrecht,5.1333,51.4333,3870
NL101,Weerter-and Budelerbergen,5.6333,51.2667,2890
NL102,Leudal,5.9167,51.25,720
NL103,Leenderbos and Groote Heide,5.5,51.3333,2270
NL104,Meinweg,6.1333,51.1667,1990
NL105,Brabantse Wal,4.3667,51.4333,5800
NL106,Kampina,5.2667,51.5667,1150
NL107,IJssel: IJsselkop-Ketelmeer,6.1333,52.4,11780
NO002,Neiden and Munkefjord,29.5833,69.6667,1180
NO003,Varangerfjord,29.8667,70.2,60000
NO004,Hornøy and Reinøy,31.1667,70.4,200
NO005,Makkaurhalvøya (Syltefjordstauran),30.5,70.5833,11600
NO006,Kongsøy,29.5,70.7333,280
NO007,Tanamunningen,28.45,70.5,3450
NO008,Omgangsstauran,28.5,70.9167,780
NO010,Gjesværstappan,25.3333,71.1667,720
NO013,Alta-Kautokeino watercourse,23.6167,69.55,30000
NO014,Loppa,21.4,70.3667,720
NO017,Sørkjosen,19.25,69.25,433
NO019,Skogvoll (including Skarvklakken),15.6833,69.1667,2800
NO020,Andøya,16,69.1667,17000
NO022,Langøya,15.4167,68.75,20000
NO023,Nykvåg,14.45,68.7667,20
NO024,Værøy,12.75,67.75,500
NO025,Røst,12,67.5,1750
NO026,Saltstraumen,14.5667,67.25,200
NO028,Svenningen-Risvær,12.5,66.3167,15000
NO030,Vega archipelago,11.75,65.8167,50000
NO031,Sklinna,11,65.2,106
NO032,Froan,8.6667,63.8333,60000
NO033,Ørland wetland system,9.5833,63.7,2920
NO034,Inner Trondheimsfjord wetland system,11.4167,63.8333,9500
NO036,Stjørdals Fjord,10.8333,63.4667,2500
NO037,Gaulosen,10.2167,63.3333,330
NO038,Havmyran,8.6667,63.5,3960
NO039,Smøla archipelago,8,63.3167,27400
NO040,Runde,5.6,62.4,640
NO041,Dovrefjell,9.45,62.3167,50000
NO042,Hardangervidda,7.6167,60.2,427200
NO043,Kjørholmane seabird reserve,5.4167,58.8833,600
NO044,Jæren wetland system,5.5667,58.8167,13500
NO045,Lista wetland system,6.6667,58.0833,1189
NO046,Skjernøy,7.55,57.9667,100
NO047,Setesdal valley (southern part),7.7833,58.5,30000
NO048,Lake Vannsjø,10.8333,59.6667,15000
NO049,Aukerfjella,11.5667,59,30000
NO050,Nordre Øyeren and Sørumsneset,11.15,59.8833,7504
NO051,Vorma-Andelva,11.2333,60.35,40
PL001,Delta of the Swina river,14.3333,53.8333,4000
PL002,Szczecin lagoon,14.4667,53.7667,48000
PL003,Rozwarowo marshes,14.75,53.8667,1600
PL004,Swidwie lake,14.3667,53.55,900
PL005,Weltyn lakes,14.5833,53.25,4600
PL006,Lower Odra river valley,14.35,53.1167,75000
PL007,Miedwie lake,14.8667,53.2667,3200
PL008,Insk Landscape Park,15.5,53.4,17763
PL009,Slowinski National Park,17.2667,54.6833,18247
PL010,Slupia Valley Landscape Park,17.3167,54.3,37040
PL011,Middle part of Tuchola forest,17.5333,53.8333,38815
PL012,Puck Bay,18.6167,54.5667,56000
PL013,Wisla river mouth,18.95,54.35,485
PL014,Wisla lagoon,19.4833,54.3167,33000
PL015,Druzno lake,19.45,54.0667,3021
PL016,Ilawa forests,19.55,53.7167,25279
PL017,Dymerskie meadows,21,53.7667,300
PL018,Napiwodzko-Ramucka forest,20.75,53.5333,65000
PL019,Oswin lake,21.5833,54.3,2500
PL020,Borecka forest,22.1333,54.1167,22000
PL021,Luknajno lake,21.6333,53.8167,710
PL022,Nietlickie marshes,21.8,53.8667,1200
PL023,Pisz forest,21.4833,53.65,163000
PL024,Augustów forest,23.2667,53.9,102000
PL025,Biebrza river valley,22.8333,53.5,126047
PL026,Narew river gaps,22.1833,53.1167,4200
PL027,Marshy valley of the Narew river,22.8667,53.0833,9332
PL028,Knyszyn forest,23.3333,53.25,110000
PL029,Gródek-Michalowo basin,23.6667,53.0667,4700
